{
  "version": 0.6,
  "generator": "Overpass API 0.7.62.11 87bfad18",
  "osm3s": {
    "timestamp_osm_base": "2026-06-12T13:45:37Z",
    "timestamp_areas_base": "2026-05-12T07:36:16Z",
    "copyright": "The data included in this document is from www.openstreetmap.org. The data is made available under ODbL."
  },
  "elements": [

{
  "type": "node",
  "id": 254344601,
  "lat": 45.6449812,
  "lon": 25.5989181,
  "tags": {
    "bench": "yes",
    "bin": "yes",
    "bus": "yes",
    "departures_board": "realtime",
    "highway": "bus_stop",
    "level": "0",
    "lit": "yes",
    "name": "Star",
    "network": "RAT Brașov",
    "network:wikidata": "Q7258031",
    "network:wikipedia": "ro:RATBV",
    "operator": "RAT Brașov",
    "public_transport": "platform",
    "shelter": "yes",
    "tactile_paving": "no",
    "wheelchair": "limited"
  }
},
{
  "type": "node",
  "id": 262148563,
  "lat": 45.6485793,
  "lon": 25.6052085,
  "tags": {
    "bench": "yes",
    "bin": "yes",
    "bus": "yes",
    "departures_board": "realtime",
    "highway": "bus_stop",
    "lit": "yes",
    "name": "Patria",
    "network": "RAT Brașov",
    "network:wikidata": "Q7258031",
    "network:wikipedia": "ro:RATBV",
    "operator": "RAT Brașov",
    "public_transport": "platform",
    "shelter": "yes",
    "tactile_paving": "no",
    "trolleybus": "yes",
    "wheelchair": "limited"
  }
},
{
  "type": "node",
  "id": 264561536,
  "lat": 45.6363005,
  "lon": 25.6085693,
  "tags": {
    "bench": "yes",
    "bin": "yes",
    "bus": "yes",
    "departures_board": "realtime",
    "highway": "bus_stop",
    "lit": "yes",
    "name": "Liceul Hans Mattis Teutsch",
    "network": "RAT Brașov",
    "network:wikidata": "Q7258031",
    "network:wikipedia": "ro:RATBV",
    "operator": "RAT Brașov",
    "public_transport": "platform",
    "shelter": "yes",
    "trolleybus": "yes",
    "wheelchair": "limited"
  }
},
{
  "type": "node",
  "id": 264864013,
  "lat": 45.6507174,
  "lon": 25.6181913,
  "tags": {
    "bench": "yes",
    "bin": "yes",
    "bus": "yes",
    "departures_board": "realtime",
    "highway": "bus_stop",
    "lit": "yes",
    "name": "Toamnei",
    "network": "RAT Brașov",
    "network:wikidata": "Q7258031",
    "network:wikipedia": "ro:RATBV",
    "operator": "RAT Brașov",
    "public_transport": "platform",
    "shelter": "yes",
    "trolleybus": "yes",
    "wheelchair": "limited"
  }
},
{
  "type": "node",
  "id": 267042578,
  "lat": 45.6543967,
  "lon": 25.6114434,
  "tags": {
    "bench": "yes",
    "bin": "yes",
    "bus": "yes",
    "departures_board": "realtime",
    "highway": "bus_stop",
    "lines": "1,3,5B,6,7,10,30,52,4",
    "lit": "yes",
    "name": "Liceul Meșotă",
    "network": "RAT Brașov",
    "network:wikidata": "Q7258031",
    "network:wikipedia": "ro:RATBV",
    "operator": "RAT Brașov",
    "public_transport": "platform",
    "shelter": "yes",
    "trolleybus": "yes",
    "wheelchair": "limited"
  }
},
{
  "type": "node",
  "id": 272095074,
  "lat": 45.6435180,
  "lon": 25.6178653,
  "tags": {
    "bench": "yes",
    "bin": "yes",
    "bus": "yes",
    "departures_board": "realtime",
    "highway": "bus_stop",
    "lit": "yes",
    "name": "Piața Decebal",
    "network": "RAT Brașov",
    "network:wikidata": "Q7258031",
    "network:wikipedia": "ro:RATBV",
    "operator": "RAT Brașov",
    "public_transport": "platform",
    "shelter": "yes",
    "trolleybus": "yes",
    "wheelchair": "limited"
  }
},
{
  "type": "node",
  "id": 272095075,
  "lat": 45.6418449,
  "lon": 25.6146143,
  "tags": {
    "bench": "yes",
    "bin": "yes",
    "bus": "yes",
    "departures_board": "timetable",
    "highway": "bus_stop",
    "lit": "yes",
    "name": "Carpaților",
    "network": "RAT Brașov",
    "network:wikidata": "Q7258031",
    "network:wikipedia": "ro:RATBV",
    "operator": "RAT Brașov",
    "public_transport": "platform",
    "shelter": "no",
    "trolleybus": "yes",
    "wheelchair": "limited"
  }
},
{
  "type": "node",
  "id": 272095077,
  "lat": 45.6399897,
  "lon": 25.6115582,
  "tags": {
    "bench": "yes",
    "bin": "yes",
    "bus": "yes",
    "departures_board": "timetable",
    "highway": "bus_stop",
    "lit": "yes",
    "name": "Muncii",
    "network": "RAT Brașov",
    "network:wikidata": "Q7258031",
    "network:wikipedia": "ro:RATBV",
    "operator": "RAT Brașov",
    "public_transport": "platform",
    "shelter": "no",
    "trolleybus": "yes",
    "wheelchair": "limited"
  }
},
{
  "type": "node",
  "id": 272095079,
  "lat": 45.6380032,
  "lon": 25.6095804,
  "tags": {
    "bench": "yes",
    "bin": "yes",
    "bus": "yes",
    "departures_board": "timetable",
    "highway": "bus_stop",
    "lit": "yes",
    "name": "Liceul Hans Mattis Teutsch",
    "network": "RAT Brașov",
    "network:wikidata": "Q7258031",
    "network:wikipedia": "ro:RATBV",
    "operator": "RAT Brașov",
    "public_transport": "platform",
    "shelter": "no",
    "trolleybus": "yes",
    "wheelchair": "limited"
  }
},
{
  "type": "node",
  "id": 273437289,
  "lat": 45.6419676,
  "lon": 25.6157600,
  "tags": {
    "bench": "yes",
    "bin": "yes",
    "bus": "yes",
    "departures_board": "realtime",
    "highway": "bus_stop",
    "lit": "yes",
    "name": "Carpaților",
    "network": "RAT Brașov",
    "network:wikidata": "Q7258031",
    "network:wikipedia": "ro:RATBV",
    "operator": "RAT Brașov",
    "public_transport": "platform",
    "shelter": "yes",
    "trolleybus": "yes",
    "wheelchair": "limited"
  }
},
{
  "type": "node",
  "id": 285721074,
  "lat": 45.6491289,
  "lon": 25.6395788,
  "tags": {
    "bench": "yes",
    "bin": "yes",
    "bus": "yes",
    "departures_board": "timetable",
    "highway": "bus_stop",
    "name": "Poligrafie",
    "network": "RAT Brașov",
    "network:wikidata": "Q7258031",
    "network:wikipedia": "ro:RATBV",
    "operator": "RAT Brașov",
    "public_transport": "platform",
    "shelter": "yes",
    "wheelchair": "limited"
  }
},
{
  "type": "node",
  "id": 290004759,
  "lat": 45.6391149,
  "lon": 25.6106860,
  "tags": {
    "bench": "yes",
    "bin": "yes",
    "bus": "yes",
    "departures_board": "realtime",
    "highway": "bus_stop",
    "lit": "yes",
    "name": "Muncii",
    "network": "RAT Brașov",
    "network:wikidata": "Q7258031",
    "network:wikipedia": "ro:RATBV",
    "operator": "RAT Brașov",
    "public_transport": "platform",
    "shelter": "yes",
    "trolleybus": "yes",
    "wheelchair": "limited"
  }
},
{
  "type": "node",
  "id": 292078573,
  "lat": 45.6667619,
  "lon": 25.5721562,
  "tags": {
    "bus": "yes",
    "highway": "bus_stop",
    "name": "Agricultorilor",
    "network": "RAT Brașov",
    "network:wikidata": "Q7258031",
    "network:wikipedia": "ro:RATBV",
    "operator": "RAT Brașov",
    "public_transport": "platform",
    "wheelchair": "limited"
  }
},
{
  "type": "node",
  "id": 299937126,
  "lat": 45.6536760,
  "lon": 25.6241355,
  "tags": {
    "bench": "yes",
    "bin": "yes",
    "bus": "yes",
    "departures_board": "realtime",
    "highway": "bus_stop",
    "lit": "no",
    "name": "Brândușelor",
    "network": "RAT Brașov",
    "network:wikidata": "Q7258031",
    "network:wikipedia": "ro:RATBV",
    "operator": "RAT Brașov",
    "public_transport": "platform",
    "shelter": "yes",
    "tactile_paving": "no",
    "trolleybus": "yes",
    "wheelchair": "yes"
  }
},
{
  "type": "node",
  "id": 300089533,
  "lat": 45.6580370,
  "lon": 25.6208429,
  "tags": {
    "bench": "yes",
    "bin": "yes",
    "bus": "yes",
    "departures_board": "realtime",
    "highway": "bus_stop",
    "lit": "yes",
    "name": "Vlahuță",
    "network": "RAT Brașov",
    "network:wikidata": "Q7258031",
    "network:wikipedia": "ro:RATBV",
    "operator": "RAT Brașov",
    "public_transport": "platform",
    "shelter": "yes",
    "trolleybus": "yes",
    "wheelchair": "limited"
  }
},
{
  "type": "node",
  "id": 300089535,
  "lat": 45.6564711,
  "lon": 25.6184058,
  "tags": {
    "bench": "yes",
    "bin": "yes",
    "bus": "yes",
    "departures_board": "realtime",
    "highway": "bus_stop",
    "lit": "yes",
    "name": "IUS",
    "network": "RAT Brașov",
    "network:wikidata": "Q7258031",
    "network:wikipedia": "ro:RATBV",
    "operator": "RAT Brașov",
    "public_transport": "platform",
    "shelter": "yes",
    "trolleybus": "yes",
    "wheelchair": "limited"
  }
},
{
  "type": "node",
  "id": 300099701,
  "lat": 45.6461175,
  "lon": 25.5770457,
  "tags": {
    "bus": "yes",
    "departures_board": "timetable",
    "highway": "bus_stop",
    "name": "Warte",
    "network": "RAT Brașov",
    "network:wikidata": "Q7258031",
    "network:wikipedia": "ro:RATBV",
    "operator": "RAT Brașov",
    "public_transport": "platform",
    "wheelchair": "limited"
  }
},
{
  "type": "node",
  "id": 300099706,
  "lat": 45.6463057,
  "lon": 25.5766224,
  "tags": {
    "bus": "yes",
    "departures_board": "timetable",
    "highway": "bus_stop",
    "name": "Warte",
    "network": "RAT Brașov",
    "network:wikidata": "Q7258031",
    "network:wikipedia": "ro:RATBV",
    "operator": "RAT Brașov",
    "public_transport": "platform",
    "shelter": "no",
    "wheelchair": "limited"
  }
},
{
  "type": "node",
  "id": 301798665,
  "lat": 45.6143316,
  "lon": 25.7205918,
  "tags": {
    "bus": "yes",
    "fare_zone": "Sacele",
    "highway": "bus_stop",
    "name": "Electroprecizia",
    "network": "RAT Brașov",
    "network:wikidata": "Q7258031",
    "operator": "RAT Brașov",
    "public_transport": "platform",
    "wheelchair": "limited"
  }
},
{
  "type": "node",
  "id": 301798666,
  "lat": 45.6140694,
  "lon": 25.7214105,
  "tags": {
    "bus": "yes",
    "fare_zone": "Sacele",
    "highway": "bus_stop",
    "name": "Electroprecizia",
    "network": "RAT Brașov",
    "network:wikidata": "Q7258031",
    "operator": "RAT Brașov",
    "public_transport": "platform",
    "wheelchair": "limited"
  }
},
{
  "type": "node",
  "id": 303078870,
  "lat": 45.6175436,
  "lon": 25.6934652,
  "tags": {
    "bus": "yes",
    "fare_zone": "Sacele",
    "highway": "bus_stop",
    "name": "Cernatu",
    "network": "RAT Brașov",
    "network:wikidata": "Q7258031",
    "operator": "RAT Brașov",
    "public_transport": "platform",
    "wheelchair": "limited"
  }
},
{
  "type": "node",
  "id": 307019142,
  "lat": 45.6441626,
  "lon": 25.6182955,
  "tags": {
    "bench": "yes",
    "bin": "yes",
    "bus": "yes",
    "departures_board": "realtime",
    "highway": "bus_stop",
    "lit": "yes",
    "name": "Piața Decebal",
    "network": "RAT Brașov",
    "network:wikidata": "Q7258031",
    "network:wikipedia": "ro:RATBV",
    "operator": "RAT Brașov",
    "public_transport": "platform",
    "shelter": "yes",
    "trolleybus": "yes",
    "wheelchair": "limited"
  }
},
{
  "type": "node",
  "id": 310018170,
  "lat": 45.6462940,
  "lon": 25.6211042,
  "tags": {
    "bench": "yes",
    "bin": "yes",
    "bus": "yes",
    "departures_board": "realtime",
    "highway": "bus_stop",
    "lit": "yes",
    "name": "Spitalul Județean",
    "network": "RAT Brașov",
    "network:wikidata": "Q7258031",
    "network:wikipedia": "ro:RATBV",
    "operator": "RAT Brașov",
    "public_transport": "platform",
    "shelter": "yes",
    "wheelchair": "limited"
  }
},
{
  "type": "node",
  "id": 310840809,
  "lat": 45.6418281,
  "lon": 25.6353000,
  "tags": {
    "bench": "yes",
    "bin": "yes",
    "bus": "yes",
    "departures_board": "realtime",
    "highway": "bus_stop",
    "lit": "yes",
    "name": "Neptun",
    "network": "RAT Brașov",
    "network:wikidata": "Q7258031",
    "network:wikipedia": "ro:RATBV",
    "operator": "RAT Brașov",
    "public_transport": "platform",
    "shelter": "yes",
    "tactile_paving": "no",
    "trolleybus": "yes",
    "wheelchair": "yes"
  }
},
{
  "type": "node",
  "id": 314157693,
  "lat": 45.6341274,
  "lon": 25.6060070,
  "tags": {
    "bench": "yes",
    "bin": "yes",
    "bus": "yes",
    "departures_board": "timetable",
    "highway": "bus_stop",
    "lit": "yes",
    "name": "Școala Generală 25",
    "network": "RAT Brașov",
    "network:wikidata": "Q7258031",
    "network:wikipedia": "ro:RATBV",
    "operator": "RAT Brașov",
    "public_transport": "platform",
    "shelter": "no",
    "trolleybus": "yes",
    "wheelchair": "limited"
  }
},
{
  "type": "node",
  "id": 353099740,
  "lat": 45.6325937,
  "lon": 25.6046494,
  "tags": {
    "bench": "yes",
    "bin": "yes",
    "bus": "yes",
    "departures_board": "timetable",
    "highway": "bus_stop",
    "lit": "yes",
    "name": "Fragilor",
    "network": "RAT Brașov",
    "network:wikidata": "Q7258031",
    "network:wikipedia": "ro:RATBV",
    "operator": "RAT Brașov",
    "public_transport": "platform",
    "shelter": "no",
    "trolleybus": "yes",
    "wheelchair": "limited"
  }
},
{
  "type": "node",
  "id": 353100201,
  "lat": 45.6330250,
  "lon": 25.6056697,
  "tags": {
    "bench": "yes",
    "bin": "yes",
    "bus": "yes",
    "departures_board": "timetable",
    "highway": "bus_stop",
    "lit": "yes",
    "name": "Fragilor",
    "network": "RAT Brașov",
    "network:wikidata": "Q7258031",
    "network:wikipedia": "ro:RATBV",
    "operator": "RAT Brașov",
    "public_transport": "platform",
    "shelter": "yes",
    "trolleybus": "yes",
    "wheelchair": "limited"
  }
},
{
  "type": "node",
  "id": 417677566,
  "lat": 45.8172452,
  "lon": 25.5892290,
  "tags": {
    "bus": "yes",
    "departures_board": "timetable",
    "fare_zone": "Feldioara",
    "highway": "bus_stop",
    "name": "Troiță",
    "network": "RAT Brașov",
    "network:wikidata": "Q7258031",
    "network:wikipedia": "ro:RATBV",
    "operator": "RAT Brașov",
    "public_transport": "platform",
    "wheelchair": "limited"
  }
},
{
  "type": "node",
  "id": 464246419,
  "lat": 45.6505031,
  "lon": 25.6211072,
  "tags": {
    "bench": "yes",
    "bin": "yes",
    "bus": "yes",
    "departures_board": "realtime",
    "highway": "bus_stop",
    "lit": "yes",
    "name": "Scriitorilor",
    "network": "RAT Brașov",
    "network:wikidata": "Q7258031",
    "network:wikipedia": "ro:RATBV",
    "operator": "RAT Brașov",
    "public_transport": "platform",
    "shelter": "yes",
    "trolleybus": "yes",
    "wheelchair": "limited"
  }
},
{
  "type": "node",
  "id": 464267110,
  "lat": 45.6548695,
  "lon": 25.6239998,
  "tags": {
    "bench": "yes",
    "bus": "yes",
    "departures_board": "realtime",
    "highway": "bus_stop",
    "name": "Brândușelor",
    "network": "RAT Brașov",
    "network:wikidata": "Q7258031",
    "network:wikipedia": "ro:RATBV",
    "operator": "RAT Brașov",
    "public_transport": "platform",
    "shelter": "yes",
    "tactile_paving": "no",
    "trolleybus": "yes",
    "wheelchair": "yes"
  }
},
{
  "type": "node",
  "id": 464276377,
  "lat": 45.6576868,
  "lon": 25.6221929,
  "tags": {
    "bench": "yes",
    "bus": "yes",
    "departures_board": "realtime",
    "highway": "bus_stop",
    "name": "Vlahuță",
    "network": "RAT Brașov",
    "network:wikidata": "Q7258031",
    "network:wikipedia": "ro:RATBV",
    "operator": "RAT Brașov",
    "public_transport": "platform",
    "shelter": "yes",
    "tactile_paving": "no",
    "trolleybus": "yes",
    "wheelchair": "limited"
  }
},
{
  "type": "node",
  "id": 465241917,
  "lat": 45.6546607,
  "lon": 25.6153092,
  "tags": {
    "bench": "yes",
    "bin": "yes",
    "bus": "yes",
    "departures_board": "realtime",
    "highway": "bus_stop",
    "name": "CEC",
    "network": "RAT Brașov",
    "network:wikidata": "Q7258031",
    "network:wikipedia": "ro:RATBV",
    "operator": "RAT Brașov",
    "public_transport": "platform",
    "shelter": "yes",
    "trolleybus": "yes",
    "wheelchair": "limited"
  }
},
{
  "type": "node",
  "id": 465241947,
  "lat": 45.6544948,
  "lon": 25.6155511,
  "tags": {
    "bench": "yes",
    "bin": "yes",
    "bus": "yes",
    "departures_board": "realtime",
    "highway": "bus_stop",
    "lit": "yes",
    "name": "Toamnei(CEC)",
    "network": "RAT Brașov",
    "network:wikidata": "Q7258031",
    "network:wikipedia": "ro:RATBV",
    "operator": "RAT Brașov",
    "public_transport": "platform",
    "shelter": "yes",
    "trolleybus": "yes",
    "wheelchair": "limited"
  }
},
{
  "type": "node",
  "id": 567945864,
  "lat": 45.6740375,
  "lon": 25.6122145,
  "tags": {
    "bench": "yes",
    "bin": "yes",
    "bus": "yes",
    "departures_board": "timetable",
    "highway": "bus_stop",
    "lit": "yes",
    "name": "Ioan Ursu",
    "network": "RAT Brașov",
    "network:wikidata": "Q7258031",
    "network:wikipedia": "ro:RATBV",
    "operator": "RAT Brașov",
    "public_transport": "platform",
    "shelter": "no",
    "tactile_paving": "no",
    "trolleybus": "yes",
    "wheelchair": "limited"
  }
},
{
  "type": "node",
  "id": 611633514,
  "lat": 45.6391227,
  "lon": 25.6197680,
  "tags": {
    "bench": "yes",
    "bin": "yes",
    "bus": "yes",
    "departures_board": "timetable",
    "highway": "bus_stop",
    "lit": "yes",
    "name": "Vulturului",
    "network": "RAT Brașov",
    "network:wikidata": "Q7258031",
    "network:wikipedia": "ro:RATBV",
    "operator": "RAT Brașov",
    "public_transport": "platform",
    "shelter": "no",
    "trolleybus": "yes",
    "wheelchair": "limited"
  }
},
{
  "type": "node",
  "id": 611633515,
  "lat": 45.6155199,
  "lon": 25.6393355,
  "tags": {
    "bench": "yes",
    "bin": "yes",
    "bus": "yes",
    "departures_board": "timetable",
    "highway": "bus_stop",
    "lit": "yes",
    "name": "Ștrand Noua",
    "network": "RAT Brașov",
    "network:wikidata": "Q7258031",
    "network:wikipedia": "ro:RATBV",
    "operator": "RAT Brașov",
    "public_transport": "platform",
    "shelter": "no",
    "wheelchair": "limited"
  }
},
{
  "type": "node",
  "id": 611633516,
  "lat": 45.6154538,
  "lon": 25.6406352,
  "tags": {
    "bench": "yes",
    "bin": "yes",
    "bus": "yes",
    "departures_board": "realtime",
    "highway": "bus_stop",
    "lit": "yes",
    "name": "Ștrand Noua",
    "network": "RAT Brașov",
    "network:wikidata": "Q7258031",
    "network:wikipedia": "ro:RATBV",
    "operator": "RAT Brașov",
    "public_transport": "platform",
    "shelter": "yes",
    "wheelchair": "limited"
  }
},
{
  "type": "node",
  "id": 611633517,
  "lat": 45.6190557,
  "lon": 25.6373028,
  "tags": {
    "bench": "yes",
    "bin": "yes",
    "bus": "yes",
    "departures_board": "realtime",
    "highway": "bus_stop",
    "lit": "yes",
    "name": "Rozmarinului",
    "network": "RAT Brașov",
    "network:wikidata": "Q7258031",
    "network:wikipedia": "ro:RATBV",
    "operator": "RAT Brașov",
    "public_transport": "platform",
    "shelter": "yes",
    "wheelchair": "limited"
  }
},
{
  "type": "node",
  "id": 611633518,
  "lat": 45.6349508,
  "lon": 25.6241606,
  "tags": {
    "bench": "yes",
    "bus": "yes",
    "covered": "no",
    "departures_board": "timetable",
    "highway": "bus_stop",
    "name": "Metrom",
    "network": "RAT Brașov",
    "network:wikidata": "Q7258031",
    "network:wikipedia": "ro:RATBV",
    "operator": "RAT Brașov",
    "public_transport": "platform",
    "shelter": "no",
    "trolleybus": "yes",
    "wheelchair": "limited"
  }
},
{
  "type": "node",
  "id": 611633519,
  "lat": 45.6315835,
  "lon": 25.6370869,
  "tags": {
    "bench": "yes",
    "bin": "yes",
    "bus": "yes",
    "departures_board": "realtime",
    "highway": "bus_stop",
    "name": "Carrefour",
    "network": "RAT Brașov",
    "network:wikidata": "Q7258031",
    "network:wikipedia": "ro:RATBV",
    "operator": "RAT Brașov",
    "public_transport": "platform",
    "shelter": "yes",
    "wheelchair": "limited"
  }
},
{
  "type": "node",
  "id": 611633521,
  "lat": 45.6164617,
  "lon": 25.6450323,
  "tags": {
    "bench": "yes",
    "bin": "yes",
    "bus": "yes",
    "departures_board": "timetable",
    "highway": "bus_stop",
    "lit": "yes",
    "name": "Poiana Dârste",
    "network": "RAT Brașov",
    "network:wikidata": "Q7258031",
    "network:wikipedia": "ro:RATBV",
    "operator": "RAT Brașov",
    "public_transport": "platform",
    "shelter": "no",
    "wheelchair": "limited"
  }
},
{
  "type": "node",
  "id": 611633522,
  "lat": 45.6164087,
  "lon": 25.6452559,
  "tags": {
    "bench": "yes",
    "bin": "yes",
    "bus": "yes",
    "departures_board": "realtime",
    "highway": "bus_stop",
    "lit": "yes",
    "name": "Poiana Dârste",
    "network": "RAT Brașov",
    "network:wikidata": "Q7258031",
    "network:wikipedia": "ro:RATBV",
    "operator": "RAT Brașov",
    "public_transport": "platform",
    "shelter": "yes",
    "wheelchair": "limited"
  }
},
{
  "type": "node",
  "id": 611633523,
  "lat": 45.6180031,
  "lon": 25.6484114,
  "tags": {
    "bench": "no",
    "bin": "yes",
    "bus": "yes",
    "departures_board": "timetable",
    "highway": "bus_stop",
    "name": "Aurora",
    "network": "RAT Brașov",
    "network:wikidata": "Q7258031",
    "network:wikipedia": "ro:RATBV",
    "operator": "RAT Brașov",
    "public_transport": "platform",
    "shelter": "no",
    "wheelchair": "limited"
  }
},
{
  "type": "node",
  "id": 611633524,
  "lat": 45.6181187,
  "lon": 25.6488818,
  "tags": {
    "bench": "yes",
    "bin": "yes",
    "bus": "yes",
    "departures_board": "realtime",
    "highway": "bus_stop",
    "lit": "yes",
    "name": "Aurora",
    "network": "RAT Brașov",
    "network:wikidata": "Q7258031",
    "network:wikipedia": "ro:RATBV",
    "operator": "RAT Brașov",
    "public_transport": "platform",
    "shelter": "yes",
    "wheelchair": "limited"
  }
},
{
  "type": "node",
  "id": 611633525,
  "lat": 45.6244514,
  "lon": 25.6446908,
  "tags": {
    "bench": "yes",
    "bin": "yes",
    "bus": "yes",
    "departures_board": "realtime",
    "highway": "bus_stop",
    "lit": "yes",
    "name": "Selgros",
    "network": "RAT Brașov",
    "network:wikidata": "Q7258031",
    "network:wikipedia": "ro:RATBV",
    "operator": "RAT Brașov",
    "public_transport": "platform",
    "shelter": "yes",
    "wheelchair": "limited"
  }
},
{
  "type": "node",
  "id": 611633526,
  "lat": 45.6403109,
  "lon": 25.6278697,
  "tags": {
    "bench": "yes",
    "bin": "yes",
    "bus": "yes",
    "departures_board": "realtime",
    "highway": "bus_stop",
    "lit": "yes",
    "name": "Berzei",
    "network": "RAT Brașov",
    "network:wikidata": "Q7258031",
    "network:wikipedia": "ro:RATBV",
    "operator": "RAT Brașov",
    "public_transport": "platform",
    "shelter": "yes",
    "wheelchair": "limited"
  }
},
{
  "type": "node",
  "id": 611633527,
  "lat": 45.6448536,
  "lon": 25.6230731,
  "tags": {
    "bench": "yes",
    "bin": "yes",
    "bus": "yes",
    "departures_board": "realtime",
    "highway": "bus_stop",
    "lit": "yes",
    "name": "Liceul de Informatică",
    "network": "RAT Brașov",
    "network:wikidata": "Q7258031",
    "network:wikipedia": "ro:RATBV",
    "operator": "RAT Brașov",
    "public_transport": "platform",
    "shelter": "yes",
    "wheelchair": "limited"
  }
},
{
  "type": "node",
  "id": 677334149,
  "lat": 45.7554029,
  "lon": 25.5980890,
  "tags": {
    "bus": "yes",
    "departures_board": "timetable",
    "fare_zone": "Bod",
    "highway": "bus_stop",
    "name": "Bod Colonie",
    "network": "RAT Brașov",
    "network:wikidata": "Q7258031",
    "network:wikipedia": "ro:RATBV",
    "operator": "RAT Brașov",
    "public_transport": "platform",
    "wheelchair": "limited"
  }
},
{
  "type": "node",
  "id": 1635108121,
  "lat": 45.6604283,
  "lon": 25.6121235,
  "tags": {
    "bench": "yes",
    "bin": "yes",
    "bus": "yes",
    "departures_board": "realtime",
    "highway": "bus_stop",
    "lit": "no",
    "name": "Bulevardul Gării",
    "network": "RAT Brașov",
    "network:wikidata": "Q7258031",
    "network:wikipedia": "ro:RATBV",
    "operator": "RAT Brașov",
    "public_transport": "platform",
    "shelter": "no",
    "tactile_paving": "no",
    "trolleybus": "yes",
    "wheelchair": "limited"
  }
},
{
  "type": "node",
  "id": 1864408175,
  "lat": 45.6304762,
  "lon": 25.6379280,
  "tags": {
    "bench": "yes",
    "bin": "yes",
    "bus": "yes",
    "departures_board": "realtime",
    "highway": "bus_stop",
    "name": "Praktiker",
    "network": "RAT Brașov",
    "network:wikidata": "Q7258031",
    "network:wikipedia": "ro:RATBV",
    "operator": "RAT Brașov",
    "public_transport": "platform",
    "shelter": "yes",
    "wheelchair": "limited"
  }
},
{
  "type": "node",
  "id": 1923401916,
  "lat": 45.6540130,
  "lon": 25.6053036,
  "tags": {
    "bench": "yes",
    "bin": "yes",
    "bus": "yes",
    "covered": "yes",
    "departures_board": "realtime",
    "highway": "bus_stop",
    "name": "Onix",
    "network": "RAT Brașov",
    "network:wikidata": "Q7258031",
    "network:wikipedia": "ro:RATBV",
    "operator": "RAT Brașov",
    "public_transport": "platform",
    "shelter": "yes",
    "trolleybus": "yes",
    "wheelchair": "limited"
  }
},
{
  "type": "node",
  "id": 1923401922,
  "lat": 45.6523577,
  "lon": 25.6043645,
  "tags": {
    "bench": "yes",
    "bin": "yes",
    "bus": "yes",
    "departures_board": "realtime",
    "highway": "bus_stop",
    "name": "Onix",
    "network": "RAT Brașov",
    "network:wikidata": "Q7258031",
    "network:wikipedia": "ro:RATBV",
    "operator": "RAT Brașov",
    "public_transport": "platform",
    "shelter": "yes",
    "trolleybus": "yes",
    "wheelchair": "limited"
  }
},
{
  "type": "node",
  "id": 2088363037,
  "lat": 45.7006084,
  "lon": 25.6897543,
  "tags": {
    "bus": "yes",
    "departures_board": "timetable",
    "fare_zone": "Harman",
    "highway": "bus_stop",
    "name": "Hărman Gară",
    "network": "RAT Brașov",
    "network:wikidata": "Q7258031",
    "network:wikipedia": "ro:RATBV",
    "operator": "RAT Brașov",
    "public_transport": "platform",
    "shelter": "no",
    "wheelchair": "limited"
  }
},
{
  "type": "node",
  "id": 2088438287,
  "lat": 45.7066348,
  "lon": 25.6874692,
  "tags": {
    "bus": "yes",
    "departures_board": "timetable",
    "fare_zone": "Harman",
    "highway": "bus_stop",
    "name": "Preot Dimitrie Greceanu",
    "network": "RAT Brașov",
    "network:wikidata": "Q7258031",
    "network:wikipedia": "ro:RATBV",
    "operator": "RAT Brașov",
    "public_transport": "platform",
    "wheelchair": "limited"
  }
},
{
  "type": "node",
  "id": 2088438290,
  "lat": 45.7011940,
  "lon": 25.6911944,
  "tags": {
    "bench": "no",
    "bin": "no",
    "bus": "yes",
    "departures_board": "timetable",
    "fare_zone": "Harman",
    "highway": "bus_stop",
    "name": "Hărman Gară",
    "network": "RAT Brașov",
    "network:wikidata": "Q7258031",
    "network:wikipedia": "ro:RATBV",
    "operator": "RAT Brașov",
    "public_transport": "platform",
    "shelter": "no",
    "wheelchair": "limited"
  }
},
{
  "type": "node",
  "id": 2088438980,
  "lat": 45.7061429,
  "lon": 25.6874930,
  "tags": {
    "bus": "yes",
    "departures_board": "timetable",
    "fare_zone": "Harman",
    "highway": "bus_stop",
    "name": "Preot Dimitrie Greceanu",
    "network": "RAT Brașov",
    "network:wikidata": "Q7258031",
    "network:wikipedia": "ro:RATBV",
    "operator": "RAT Brașov",
    "public_transport": "platform",
    "wheelchair": "limited"
  }
},
{
  "type": "node",
  "id": 2088441880,
  "lat": 45.7138846,
  "lon": 25.6843174,
  "tags": {
    "bench": "yes",
    "bin": "yes",
    "building": "roof",
    "bus": "yes",
    "departures_board": "timetable",
    "fare_zone": "Harman",
    "highway": "bus_stop",
    "name": "Centru Hărman",
    "network": "RAT Brașov",
    "network:wikidata": "Q7258031",
    "network:wikipedia": "ro:RATBV",
    "operator": "RAT Brașov",
    "public_transport": "platform",
    "shelter": "yes",
    "wheelchair": "limited"
  }
},
{
  "type": "node",
  "id": 2088442014,
  "lat": 45.7137670,
  "lon": 25.6853763,
  "tags": {
    "bus": "yes",
    "departures_board": "timetable",
    "fare_zone": "Harman",
    "highway": "bus_stop",
    "name": "Centru",
    "network": "RAT Brașov",
    "network:wikidata": "Q7258031",
    "network:wikipedia": "ro:RATBV",
    "operator": "RAT Brașov",
    "public_transport": "platform",
    "wheelchair": "limited"
  }
},
{
  "type": "node",
  "id": 2279493798,
  "lat": 45.6608833,
  "lon": 25.6271803,
  "tags": {
    "bench": "no",
    "bin": "yes",
    "bus": "yes",
    "departures_board": "timetable",
    "highway": "bus_stop",
    "lit": "no",
    "name": "Ceferiștilor",
    "network": "RAT Brașov",
    "network:wikidata": "Q7258031",
    "network:wikipedia": "ro:RATBV",
    "operator": "RAT Brașov",
    "public_transport": "platform",
    "shelter": "no",
    "wheelchair": "limited"
  }
},
{
  "type": "node",
  "id": 2375041368,
  "lat": 45.6457602,
  "lon": 25.5881942,
  "tags": {
    "bench": "yes",
    "bin": "yes",
    "bus": "yes",
    "covered": "no",
    "gtfs_stop_code": "1",
    "highway": "bus_stop",
    "lit": "yes",
    "local_ref": "1",
    "name": "Livada Poștei",
    "network": "RAT Brașov",
    "network:wikidata": "Q7258031",
    "network:wikipedia": "ro:RATBV",
    "operator": "RAT Brașov",
    "passenger_information_display": "yes",
    "public_transport": "platform",
    "shelter": "yes",
    "tactile_paving": "no",
    "wheelchair": "limited"
  }
},
{
  "type": "node",
  "id": 2375041369,
  "lat": 45.6456750,
  "lon": 25.5887748,
  "tags": {
    "bench": "yes",
    "bin": "yes",
    "bus": "yes",
    "covered": "no",
    "gtfs_stop_code": "4",
    "highway": "bus_stop",
    "lit": "yes",
    "local_ref": "4",
    "name": "Livada Poștei",
    "network": "RAT Brașov",
    "network:wikidata": "Q7258031",
    "network:wikipedia": "ro:RATBV",
    "operator": "RAT Brașov",
    "passenger_information_display": "yes",
    "public_transport": "platform",
    "shelter": "yes",
    "tactile_paving": "no",
    "wheelchair": "limited"
  }
},
{
  "type": "node",
  "id": 2375041371,
  "lat": 45.6457010,
  "lon": 25.5885858,
  "tags": {
    "bench": "yes",
    "bin": "yes",
    "bus": "yes",
    "covered": "no",
    "gtfs_stop_code": "3",
    "highway": "bus_stop",
    "lit": "yes",
    "local_ref": "3",
    "name": "Livada Poștei",
    "network": "RAT Brașov",
    "network:wikidata": "Q7258031",
    "network:wikipedia": "ro:RATBV",
    "operator": "RAT Brașov",
    "passenger_information_display": "yes",
    "public_transport": "platform",
    "shelter": "yes",
    "tactile_paving": "no",
    "trolleybus": "yes",
    "wheelchair": "limited"
  }
},
{
  "type": "node",
  "id": 2375041372,
  "lat": 45.6457304,
  "lon": 25.5883417,
  "tags": {
    "bench": "yes",
    "bin": "yes",
    "bus": "yes",
    "gtfs_stop_code": "2",
    "highway": "bus_stop",
    "lit": "yes",
    "local_ref": "2",
    "name": "Livada Poștei",
    "network": "RAT Brașov",
    "network:wikidata": "Q7258031",
    "network:wikipedia": "ro:RATBV",
    "operator": "RAT Brașov",
    "passenger_information_display": "yes",
    "public_transport": "platform",
    "shelter": "yes",
    "tactile_paving": "no",
    "trolleybus": "yes",
    "wheelchair": "limited"
  }
},
{
  "type": "node",
  "id": 2400699966,
  "lat": 45.8410639,
  "lon": 24.9714405,
  "tags": {
    "bus": "yes",
    "highway": "bus_stop",
    "name": "Autogara Făgăraș",
    "operator": "Transbus Codreanu",
    "public_transport": "platform"
  }
},
{
  "type": "node",
  "id": 2400699967,
  "lat": 45.8462122,
  "lon": 24.9761919,
  "tags": {
    "bench": "no",
    "bin": "yes",
    "bus": "yes",
    "highway": "bus_stop",
    "lit": "no",
    "name": "Stație Bus",
    "public_transport": "platform",
    "shelter": "no"
  }
},
{
  "type": "node",
  "id": 2537929578,
  "lat": 45.6493188,
  "lon": 25.6005197,
  "tags": {
    "bench": "yes",
    "bin": "yes",
    "bus": "yes",
    "departures_board": "realtime",
    "highway": "bus_stop",
    "lit": "yes",
    "name": "Sanitas",
    "network": "RAT Brașov",
    "network:wikidata": "Q7258031",
    "network:wikipedia": "ro:RATBV",
    "operator": "RAT Brașov",
    "public_transport": "platform",
    "shelter": "yes",
    "tactile_paving": "no",
    "trolleybus": "yes",
    "wheelchair": "limited"
  }
},
{
  "type": "node",
  "id": 2537991836,
  "lat": 45.6506059,
  "lon": 25.6261276,
  "tags": {
    "bench": "yes",
    "bin": "yes",
    "bus": "yes",
    "departures_board": "realtime",
    "highway": "bus_stop",
    "lit": "yes",
    "name": "Panait Cerna",
    "network": "RAT Brașov",
    "network:wikidata": "Q7258031",
    "network:wikipedia": "ro:RATBV",
    "operator": "RAT Brașov",
    "public_transport": "platform",
    "shelter": "yes",
    "tactile_paving": "no",
    "trolleybus": "yes",
    "wheelchair": "yes"
  }
},
{
  "type": "node",
  "id": 2537994014,
  "lat": 45.6487112,
  "lon": 25.6276060,
  "tags": {
    "bench": "yes",
    "bin": "yes",
    "bus": "yes",
    "departures_board": "realtime",
    "highway": "bus_stop",
    "lit": "yes",
    "name": "Gemenii",
    "network": "RAT Brașov",
    "network:wikidata": "Q7258031",
    "network:wikipedia": "ro:RATBV",
    "operator": "RAT Brașov",
    "public_transport": "platform",
    "shelter": "yes",
    "tactile_paving": "no",
    "trolleybus": "yes",
    "wheelchair": "yes"
  }
},
{
  "type": "node",
  "id": 2537995437,
  "lat": 45.6481242,
  "lon": 25.6286154,
  "tags": {
    "bench": "yes",
    "bin": "yes",
    "bus": "yes",
    "departures_board": "realtime",
    "highway": "bus_stop",
    "lit": "yes",
    "name": "Gemenii",
    "network": "RAT Brașov",
    "network:wikidata": "Q7258031",
    "network:wikipedia": "ro:RATBV",
    "operator": "RAT Brașov",
    "public_transport": "platform",
    "shelter": "yes",
    "tactile_paving": "yes",
    "trolleybus": "yes",
    "wheelchair": "yes"
  }
},
{
  "type": "node",
  "id": 2537998221,
  "lat": 45.6453425,
  "lon": 25.6315871,
  "tags": {
    "bench": "yes",
    "bin": "yes",
    "bus": "yes",
    "departures_board": "realtime",
    "highway": "bus_stop",
    "lit": "yes",
    "name": "Complexul Mare",
    "network": "RAT Brașov",
    "network:wikidata": "Q7258031",
    "network:wikipedia": "ro:RATBV",
    "operator": "RAT Brașov",
    "public_transport": "platform",
    "shelter": "yes",
    "tactile_paving": "no",
    "trolleybus": "yes",
    "wheelchair": "yes"
  }
},
{
  "type": "node",
  "id": 2537999895,
  "lat": 45.6438516,
  "lon": 25.6327488,
  "tags": {
    "bench": "yes",
    "bin": "yes",
    "bus": "yes",
    "departures_board": "realtime",
    "highway": "bus_stop",
    "lit": "yes",
    "name": "Complexul Mare",
    "network": "RAT Brașov",
    "network:wikidata": "Q7258031",
    "network:wikipedia": "ro:RATBV",
    "operator": "RAT Brașov",
    "public_transport": "platform",
    "shelter": "yes",
    "tactile_paving": "no",
    "trolleybus": "yes",
    "wheelchair": "yes"
  }
},
{
  "type": "node",
  "id": 2538006527,
  "lat": 45.6409444,
  "lon": 25.6357666,
  "tags": {
    "bench": "yes",
    "bin": "yes",
    "bus": "yes",
    "departures_board": "timetable",
    "highway": "bus_stop",
    "lit": "yes",
    "name": "Neptun",
    "network": "RAT Brașov",
    "network:wikidata": "Q7258031",
    "network:wikipedia": "ro:RATBV",
    "operator": "RAT Brașov",
    "public_transport": "platform",
    "shelter": "no",
    "tactile_paving": "no",
    "trolleybus": "yes",
    "wheelchair": "yes"
  }
},
{
  "type": "node",
  "id": 2538009452,
  "lat": 45.6384849,
  "lon": 25.6363183,
  "tags": {
    "bench": "yes",
    "bin": "yes",
    "bus": "yes",
    "departures_board": "timetable",
    "highway": "bus_stop",
    "lit": "yes",
    "name": "Cometei",
    "network": "RAT Brașov",
    "network:wikidata": "Q7258031",
    "network:wikipedia": "ro:RATBV",
    "operator": "RAT Brașov",
    "public_transport": "platform",
    "shelter": "no",
    "tactile_paving": "no",
    "trolleybus": "yes",
    "wheelchair": "yes"
  }
},
{
  "type": "node",
  "id": 2552635273,
  "lat": 45.6465502,
  "lon": 25.5960826,
  "tags": {
    "bench": "yes",
    "bin": "yes",
    "bus": "yes",
    "departures_board": "realtime",
    "highway": "bus_stop",
    "level": "0",
    "lit": "yes",
    "name": "Primărie",
    "network": "RAT Brașov",
    "network:wikidata": "Q7258031",
    "network:wikipedia": "ro:RATBV",
    "operator": "RAT Brașov",
    "public_transport": "platform",
    "shelter": "yes",
    "tactile_paving": "no",
    "wheelchair": "yes"
  }
},
{
  "type": "node",
  "id": 2655859050,
  "lat": 45.6452942,
  "lon": 25.5982070,
  "tags": {
    "bench": "yes",
    "bin": "yes",
    "bus": "yes",
    "departures_board": "realtime",
    "highway": "bus_stop",
    "lit": "yes",
    "name": "Teatrul Dramatic",
    "network": "RAT Brașov",
    "network:wikidata": "Q7258031",
    "network:wikipedia": "ro:RATBV",
    "operator": "RAT Brașov",
    "public_transport": "platform",
    "shelter": "yes",
    "tactile_paving": "no",
    "trolleybus": "yes",
    "wheelchair": "yes"
  }
},
{
  "type": "node",
  "id": 2657492053,
  "lat": 45.6305677,
  "lon": 25.6012173,
  "tags": {
    "bench": "yes",
    "bin": "yes",
    "bus": "yes",
    "departures_board": "timetable",
    "highway": "bus_stop",
    "lit": "yes",
    "name": "Valea Cetății",
    "network": "RAT Brașov",
    "network:wikidata": "Q7258031",
    "network:wikipedia": "ro:RATBV",
    "operator": "RAT Brașov",
    "public_transport": "platform",
    "shelter": "no",
    "trolleybus": "yes",
    "wheelchair": "limited"
  }
},
{
  "type": "node",
  "id": 2657569557,
  "lat": 45.6152961,
  "lon": 25.6306928,
  "tags": {
    "bus": "yes",
    "departures_board": "timetable",
    "highway": "bus_stop",
    "name": "Școala Generală 9",
    "network": "RAT Brașov",
    "network:wikidata": "Q7258031",
    "network:wikipedia": "ro:RATBV",
    "operator": "RAT Brașov",
    "public_transport": "platform",
    "wheelchair": "limited"
  }
},
{
  "type": "node",
  "id": 2657570995,
  "lat": 45.6180439,
  "lon": 25.6317872,
  "tags": {
    "bus": "yes",
    "departures_board": "timetable",
    "highway": "bus_stop",
    "name": "Brazilor",
    "network": "RAT Brașov",
    "network:wikidata": "Q7258031",
    "network:wikipedia": "ro:RATBV",
    "operator": "RAT Brașov",
    "public_transport": "platform",
    "wheelchair": "limited"
  }
},
{
  "type": "node",
  "id": 2657574024,
  "lat": 45.6202864,
  "lon": 25.6340644,
  "tags": {
    "bench": "yes",
    "bin": "yes",
    "bus": "yes",
    "departures_board": "realtime",
    "gtfs_stop_code": "1",
    "highway": "bus_stop",
    "lit": "yes",
    "local_ref": "1",
    "name": "Noua",
    "network": "RAT Brașov",
    "network:wikidata": "Q7258031",
    "network:wikipedia": "ro:RATBV",
    "operator": "RAT Brașov",
    "public_transport": "platform",
    "shelter": "yes",
    "wheelchair": "limited"
  }
},
{
  "type": "node",
  "id": 2657605414,
  "lat": 45.6820366,
  "lon": 25.6149591,
  "tags": {
    "bench": "yes",
    "bin": "yes",
    "bus": "yes",
    "covered": "yes",
    "departures_board": "realtime",
    "gtfs_stop_code": "4",
    "highway": "bus_stop",
    "lit": "yes",
    "local_ref": "4",
    "name": "Rulmentul",
    "network": "RAT Brașov",
    "network:wikidata": "Q7258031",
    "network:wikipedia": "ro:RATBV",
    "operator": "RAT Brașov",
    "passenger_information_display": "yes",
    "public_transport": "platform",
    "shelter": "yes",
    "tactile_paving": "no",
    "trolleybus": "yes",
    "wheelchair": "limited"
  }
},
{
  "type": "node",
  "id": 2657617744,
  "lat": 45.6488834,
  "lon": 25.6406342,
  "tags": {
    "bench": "yes",
    "bin": "yes",
    "bus": "yes",
    "departures_board": "timetable",
    "highway": "bus_stop",
    "name": "Poligrafie",
    "network": "RAT Brașov",
    "network:wikidata": "Q7258031",
    "network:wikipedia": "ro:RATBV",
    "operator": "RAT Brașov",
    "public_transport": "platform",
    "shelter": "no",
    "wheelchair": "limited"
  }
},
{
  "type": "node",
  "id": 2657624300,
  "lat": 45.6491879,
  "lon": 25.6434800,
  "tags": {
    "bench": "yes",
    "bin": "yes",
    "bus": "yes",
    "departures_board": "timetable",
    "highway": "bus_stop",
    "name": "Romradiatoare",
    "network": "RAT Brașov",
    "network:wikidata": "Q7258031",
    "network:wikipedia": "ro:RATBV",
    "operator": "RAT Brașov",
    "public_transport": "platform",
    "shelter": "yes",
    "wheelchair": "limited"
  }
},
{
  "type": "node",
  "id": 2657624828,
  "lat": 45.6490428,
  "lon": 25.6444286,
  "tags": {
    "bench": "yes",
    "bin": "yes",
    "bus": "yes",
    "departures_board": "timetable",
    "highway": "bus_stop",
    "name": "Romradiatoare",
    "network": "RAT Brașov",
    "network:wikidata": "Q7258031",
    "network:wikipedia": "ro:RATBV",
    "operator": "RAT Brașov",
    "public_transport": "platform",
    "shelter": "no",
    "wheelchair": "limited"
  }
},
{
  "type": "node",
  "id": 2657652503,
  "lat": 45.6491948,
  "lon": 25.6474881,
  "tags": {
    "bench": "yes",
    "bin": "yes",
    "bus": "yes",
    "departures_board": "realtime",
    "highway": "bus_stop",
    "name": "Carfil",
    "network": "RAT Brașov",
    "network:wikidata": "Q7258031",
    "network:wikipedia": "ro:RATBV",
    "operator": "RAT Brașov",
    "public_transport": "platform",
    "shelter": "no",
    "wheelchair": "limited"
  }
},
{
  "type": "node",
  "id": 2657653187,
  "lat": 45.6490033,
  "lon": 25.6481453,
  "tags": {
    "bench": "yes",
    "bin": "yes",
    "bus": "yes",
    "departures_board": "timetable",
    "highway": "bus_stop",
    "name": "Carfil",
    "network": "RAT Brașov",
    "network:wikidata": "Q7258031",
    "network:wikipedia": "ro:RATBV",
    "operator": "RAT Brașov",
    "public_transport": "platform",
    "shelter": "no",
    "wheelchair": "limited"
  }
},
{
  "type": "node",
  "id": 2657655619,
  "lat": 45.6489197,
  "lon": 25.6524437,
  "tags": {
    "bench": "no",
    "bin": "no",
    "bus": "yes",
    "departures_board": "timetable",
    "highway": "bus_stop",
    "name": "Cernatului",
    "network": "RAT Brașov",
    "network:wikidata": "Q7258031",
    "network:wikipedia": "ro:RATBV",
    "operator": "RAT Brașov",
    "public_transport": "platform",
    "shelter": "no",
    "wheelchair": "limited"
  }
},
{
  "type": "node",
  "id": 2657675435,
  "lat": 45.6396254,
  "lon": 25.6281475,
  "tags": {
    "bench": "yes",
    "bin": "yes",
    "bus": "yes",
    "departures_board": "realtime",
    "highway": "bus_stop",
    "lit": "yes",
    "name": "Berzei",
    "network": "RAT Brașov",
    "network:wikidata": "Q7258031",
    "network:wikipedia": "ro:RATBV",
    "operator": "RAT Brașov",
    "public_transport": "platform",
    "shelter": "yes",
    "wheelchair": "limited"
  }
},
{
  "type": "node",
  "id": 2657677035,
  "lat": 45.6396045,
  "lon": 25.6271076,
  "tags": {
    "bench": "yes",
    "bin": "yes",
    "bus": "yes",
    "departures_board": "timetable",
    "highway": "bus_stop",
    "name": "Berzei",
    "network": "RAT Brașov",
    "network:wikidata": "Q7258031",
    "network:wikipedia": "ro:RATBV",
    "operator": "RAT Brașov",
    "public_transport": "platform",
    "shelter": "no",
    "wheelchair": "limited"
  }
},
{
  "type": "node",
  "id": 2657703726,
  "lat": 45.6646449,
  "lon": 25.6088279,
  "tags": {
    "bench": "yes",
    "bin": "yes",
    "bus": "yes",
    "departures_board": "realtime",
    "highway": "bus_stop",
    "lit": "yes",
    "name": "Biserica Tractorul",
    "network": "RAT Brașov",
    "network:wikidata": "Q7258031",
    "network:wikipedia": "ro:RATBV",
    "operator": "RAT Brașov",
    "public_transport": "platform",
    "shelter": "yes",
    "trolleybus": "yes",
    "wheelchair": "limited"
  }
},
{
  "type": "node",
  "id": 2657704969,
  "lat": 45.6659125,
  "lon": 25.6084883,
  "tags": {
    "bench": "yes",
    "bin": "yes",
    "bus": "yes",
    "departures_board": "timetable",
    "highway": "bus_stop",
    "name": "Spital Tractorul",
    "network": "RAT Brașov",
    "network:wikidata": "Q7258031",
    "network:wikipedia": "ro:RATBV",
    "operator": "RAT Brașov",
    "public_transport": "platform",
    "shelter": "no",
    "wheelchair": "limited"
  }
},
{
  "type": "node",
  "id": 2657706440,
  "lat": 45.6662191,
  "lon": 25.6037742,
  "tags": {
    "bench": "yes",
    "bin": "yes",
    "bus": "yes",
    "departures_board": "timetable",
    "highway": "bus_stop",
    "name": "Piața Tractorul",
    "network": "RAT Brașov",
    "network:wikidata": "Q7258031",
    "network:wikipedia": "ro:RATBV",
    "operator": "RAT Brașov",
    "public_transport": "platform",
    "shelter": "yes",
    "wheelchair": "limited"
  }
},
{
  "type": "node",
  "id": 2657710288,
  "lat": 45.6663474,
  "lon": 25.5995298,
  "tags": {
    "bench": "no",
    "bin": "yes",
    "bus": "yes",
    "departures_board": "timetable",
    "highway": "bus_stop",
    "lit": "yes",
    "name": "1 Decembrie 1918",
    "network": "RAT Brașov",
    "network:wikidata": "Q7258031",
    "network:wikipedia": "ro:RATBV",
    "operator": "RAT Brașov",
    "public_transport": "platform",
    "shelter": "no",
    "wheelchair": "limited"
  }
},
{
  "type": "node",
  "id": 2657713531,
  "lat": 45.6665913,
  "lon": 25.5981614,
  "tags": {
    "bench": "yes",
    "bin": "yes",
    "bus": "yes",
    "departures_board": "timetable",
    "highway": "bus_stop",
    "name": "1 Decembrie 1918",
    "network": "RAT Brașov",
    "network:wikidata": "Q7258031",
    "network:wikipedia": "ro:RATBV",
    "operator": "RAT Brașov",
    "public_transport": "platform",
    "shelter": "no",
    "wheelchair": "limited"
  }
},
{
  "type": "node",
  "id": 2679017945,
  "lat": 45.6492418,
  "lon": 25.6042211,
  "tags": {
    "bench": "yes",
    "bin": "yes",
    "bus": "yes",
    "departures_board": "timetable",
    "highway": "bus_stop",
    "lit": "no",
    "name": "Castanilor",
    "network": "RAT Brașov",
    "network:wikidata": "Q7258031",
    "network:wikipedia": "ro:RATBV",
    "operator": "RAT Brașov",
    "public_transport": "platform",
    "shelter": "no",
    "trolleybus": "yes",
    "wheelchair": "limited"
  }
},
{
  "type": "node",
  "id": 2680733271,
  "lat": 45.6397489,
  "lon": 25.6191926,
  "tags": {
    "bench": "yes",
    "bin": "yes",
    "bus": "yes",
    "departures_board": "timetable",
    "highway": "bus_stop",
    "lit": "yes",
    "name": "Vulturului",
    "network": "RAT Brașov",
    "network:wikidata": "Q7258031",
    "network:wikipedia": "ro:RATBV",
    "operator": "RAT Brașov",
    "public_transport": "platform",
    "shelter": "no",
    "trolleybus": "yes",
    "wheelchair": "limited"
  }
},
{
  "type": "node",
  "id": 2680751671,
  "lat": 45.6319101,
  "lon": 25.6287993,
  "tags": {
    "bench": "yes",
    "bin": "yes",
    "bus": "yes",
    "departures_board": "timetable",
    "highway": "bus_stop",
    "lit": "yes",
    "name": "Poienelor",
    "network": "RAT Brașov",
    "network:wikidata": "Q7258031",
    "network:wikipedia": "ro:RATBV",
    "operator": "RAT Brașov",
    "public_transport": "platform",
    "shelter": "no",
    "trolleybus": "yes",
    "wheelchair": "limited"
  }
},
{
  "type": "node",
  "id": 2680755471,
  "lat": 45.6317781,
  "lon": 25.6295221,
  "tags": {
    "bench": "yes",
    "bin": "yes",
    "bus": "yes",
    "departures_board": "timetable",
    "highway": "bus_stop",
    "lit": "yes",
    "name": "Poienelor",
    "network": "RAT Brașov",
    "network:wikidata": "Q7258031",
    "network:wikipedia": "ro:RATBV",
    "operator": "RAT Brașov",
    "public_transport": "platform",
    "shelter": "no",
    "trolleybus": "yes",
    "wheelchair": "limited"
  }
},
{
  "type": "node",
  "id": 2683090885,
  "lat": 45.6580579,
  "lon": 25.6126944,
  "tags": {
    "bench": "yes",
    "bin": "yes",
    "bus": "yes",
    "departures_board": "realtime",
    "highway": "bus_stop",
    "lit": "yes",
    "name": "Dacia",
    "network": "RAT Brașov",
    "network:wikidata": "Q7258031",
    "network:wikipedia": "ro:RATBV",
    "operator": "RAT Brașov",
    "public_transport": "platform",
    "shelter": "yes",
    "wheelchair": "limited"
  }
},
{
  "type": "node",
  "id": 2683091443,
  "lat": 45.6552856,
  "lon": 25.6121936,
  "tags": {
    "bench": "yes",
    "bin": "yes",
    "bus": "yes",
    "departures_board": "realtime",
    "highway": "bus_stop",
    "lit": "no",
    "name": "Infostar",
    "network": "RAT Brașov",
    "network:wikidata": "Q7258031",
    "network:wikipedia": "ro:RATBV",
    "operator": "RAT Brașov",
    "public_transport": "platform",
    "shelter": "yes",
    "wheelchair": "limited"
  }
},
{
  "type": "node",
  "id": 2683092725,
  "lat": 45.6591505,
  "lon": 25.6134741,
  "tags": {
    "bench": "yes",
    "bin": "yes",
    "bus": "yes",
    "departures_board": "realtime",
    "highway": "bus_stop",
    "lit": "yes",
    "name": "Rapid",
    "network": "RAT Brașov",
    "network:wikidata": "Q7258031",
    "network:wikipedia": "ro:RATBV",
    "operator": "RAT Brașov",
    "public_transport": "platform",
    "shelter": "yes",
    "wheelchair": "limited"
  }
},
{
  "type": "node",
  "id": 2683094124,
  "lat": 45.6550657,
  "lon": 25.6126735,
  "tags": {
    "bench": "yes",
    "bin": "yes",
    "bus": "yes",
    "departures_board": "realtime",
    "highway": "bus_stop",
    "lit": "no",
    "name": "Infostar",
    "network": "RAT Brașov",
    "network:wikidata": "Q7258031",
    "network:wikipedia": "ro:RATBV",
    "operator": "RAT Brașov",
    "public_transport": "platform",
    "shelter": "yes",
    "wheelchair": "limited"
  }
},
{
  "type": "node",
  "id": 2854669944,
  "lat": 45.6361885,
  "lon": 25.5792177,
  "tags": {
    "bench": "yes",
    "bin": "yes",
    "bus": "yes",
    "check_date:shelter": "2021-07-03",
    "departures_board": "timetable",
    "highway": "bus_stop",
    "lit": "no",
    "name": "Piața Unirii",
    "network": "RAT Brașov",
    "network:wikidata": "Q7258031",
    "network:wikipedia": "ro:RATBV",
    "operator": "RAT Brașov",
    "public_transport": "platform",
    "shelter": "no",
    "wheelchair": "limited"
  }
},
{
  "type": "node",
  "id": 2910431428,
  "lat": 45.6597046,
  "lon": 25.6147679,
  "tags": {
    "bench": "yes",
    "bin": "no",
    "bus": "yes",
    "departures_board": "timetable",
    "highway": "bus_stop",
    "lit": "yes",
    "name": "Căprioara",
    "network": "RAT Brașov",
    "network:wikidata": "Q7258031",
    "network:wikipedia": "ro:RATBV",
    "operator": "RAT Brașov",
    "passenger_information_display": "no",
    "public_transport": "platform",
    "shelter": "yes",
    "tactile_paving": "no",
    "trolleybus": "yes",
    "wheelchair": "limited"
  }
},
{
  "type": "node",
  "id": 2910858095,
  "lat": 45.6474386,
  "lon": 25.6192565,
  "tags": {
    "bench": "yes",
    "bin": "yes",
    "bus": "yes",
    "departures_board": "timetable",
    "highway": "bus_stop",
    "lit": "yes",
    "name": "Spitalul Județean",
    "network": "RAT Brașov",
    "network:wikidata": "Q7258031",
    "network:wikipedia": "ro:RATBV",
    "operator": "RAT Brașov",
    "public_transport": "platform",
    "shelter": "yes",
    "trolleybus": "yes",
    "wheelchair": "limited"
  }
},
{
  "type": "node",
  "id": 3343778544,
  "lat": 45.6622757,
  "lon": 25.5931677,
  "tags": {
    "bench": "yes",
    "bin": "yes",
    "bus": "yes",
    "departures_board": "timetable",
    "highway": "bus_stop",
    "name": "Academia Henri Coandă",
    "network": "RAT Brașov",
    "network:wikidata": "Q7258031",
    "network:wikipedia": "ro:RATBV",
    "operator": "RAT Brașov",
    "public_transport": "platform",
    "shelter": "no",
    "trolleybus": "yes",
    "wheelchair": "limited"
  }
},
{
  "type": "node",
  "id": 3343778546,
  "lat": 45.6601671,
  "lon": 25.6020290,
  "tags": {
    "bench": "yes",
    "bin": "yes",
    "bus": "yes",
    "departures_board": "timetable",
    "highway": "bus_stop",
    "name": "Iancu Jianu",
    "network": "RAT Brașov",
    "network:wikidata": "Q7258031",
    "network:wikipedia": "ro:RATBV",
    "operator": "RAT Brașov",
    "public_transport": "platform",
    "shelter": "no",
    "wheelchair": "limited"
  }
},
{
  "type": "node",
  "id": 3343778547,
  "lat": 45.6604337,
  "lon": 25.6009079,
  "tags": {
    "bench": "yes",
    "bin": "yes",
    "bus": "yes",
    "departures_board": "realtime",
    "highway": "bus_stop",
    "name": "Iancu Jianu",
    "network": "RAT Brașov",
    "network:wikidata": "Q7258031",
    "network:wikipedia": "ro:RATBV",
    "operator": "RAT Brașov",
    "public_transport": "platform",
    "shelter": "yes",
    "wheelchair": "limited"
  }
},
{
  "type": "node",
  "id": 3343778549,
  "lat": 45.6594159,
  "lon": 25.5954628,
  "tags": {
    "bench": "yes",
    "bin": "yes",
    "bus": "yes",
    "departures_board": "realtime",
    "highway": "bus_stop",
    "name": "Plevnei",
    "network": "RAT Brașov",
    "network:wikidata": "Q7258031",
    "network:wikipedia": "ro:RATBV",
    "operator": "RAT Brașov",
    "public_transport": "platform",
    "shelter": "yes",
    "trolleybus": "yes",
    "wheelchair": "limited"
  }
},
{
  "type": "node",
  "id": 3343778550,
  "lat": 45.6603120,
  "lon": 25.5963420,
  "tags": {
    "bench": "no",
    "bin": "yes",
    "bus": "yes",
    "departures_board": "timetable",
    "highway": "bus_stop",
    "lit": "yes",
    "name": "Plevnei",
    "network": "RAT Brașov",
    "network:wikidata": "Q7258031",
    "network:wikipedia": "ro:RATBV",
    "operator": "RAT Brașov",
    "public_transport": "platform",
    "shelter": "no",
    "wheelchair": "limited"
  }
},
{
  "type": "node",
  "id": 3343778551,
  "lat": 45.6608638,
  "lon": 25.5946464,
  "tags": {
    "bench": "yes",
    "bin": "yes",
    "bus": "yes",
    "departures_board": "realtime",
    "highway": "bus_stop",
    "name": "Plevnei",
    "network": "RAT Brașov",
    "network:wikidata": "Q7258031",
    "network:wikipedia": "ro:RATBV",
    "operator": "RAT Brașov",
    "public_transport": "platform",
    "shelter": "yes",
    "trolleybus": "yes",
    "wheelchair": "limited"
  }
},
{
  "type": "node",
  "id": 3343778552,
  "lat": 45.6558762,
  "lon": 25.6000287,
  "tags": {
    "bench": "yes",
    "bin": "yes",
    "bus": "yes",
    "departures_board": "realtime",
    "highway": "bus_stop",
    "name": "Universitate",
    "network": "RAT Brașov",
    "network:wikidata": "Q7258031",
    "network:wikipedia": "ro:RATBV",
    "operator": "RAT Brașov",
    "public_transport": "platform",
    "shelter": "yes",
    "trolleybus": "yes",
    "wheelchair": "limited"
  }
},
{
  "type": "node",
  "id": 3343778553,
  "lat": 45.6567319,
  "lon": 25.5991921,
  "tags": {
    "bench": "yes",
    "bin": "yes",
    "bus": "yes",
    "departures_board": "timetable",
    "highway": "bus_stop",
    "name": "Universitate",
    "network": "RAT Brașov",
    "network:wikidata": "Q7258031",
    "network:wikipedia": "ro:RATBV",
    "operator": "RAT Brașov",
    "public_transport": "platform",
    "shelter": "no",
    "trolleybus": "yes",
    "wheelchair": "limited"
  }
},
{
  "type": "node",
  "id": 3343781090,
  "lat": 45.6534264,
  "lon": 25.6040780,
  "tags": {
    "bench": "yes",
    "bin": "yes",
    "bus": "yes",
    "departures_board": "realtime",
    "highway": "bus_stop",
    "lit": "yes",
    "name": "Onix",
    "network": "RAT Brașov",
    "network:wikidata": "Q7258031",
    "network:wikipedia": "ro:RATBV",
    "operator": "RAT Brașov",
    "public_transport": "platform",
    "shelter": "yes",
    "trolleybus": "yes",
    "wheelchair": "limited"
  }
},
{
  "type": "node",
  "id": 3347300843,
  "lat": 45.6649014,
  "lon": 25.5940245,
  "tags": {
    "bench": "yes",
    "bin": "yes",
    "bus": "yes",
    "departures_board": "realtime",
    "highway": "bus_stop",
    "name": "Tudor Vladimirescu",
    "network": "RAT Brașov",
    "network:wikidata": "Q7258031",
    "network:wikipedia": "ro:RATBV",
    "operator": "RAT Brașov",
    "public_transport": "platform",
    "shelter": "yes",
    "trolleybus": "yes",
    "wheelchair": "limited"
  }
},
{
  "type": "node",
  "id": 3368804794,
  "lat": 45.6609062,
  "lon": 25.6078226,
  "tags": {
    "bench": "yes",
    "bin": "yes",
    "bus": "yes",
    "departures_board": "timetable",
    "highway": "bus_stop",
    "lit": "yes",
    "name": "Făget",
    "network": "RAT Brașov",
    "network:wikidata": "Q7258031",
    "network:wikipedia": "ro:RATBV",
    "operator": "RAT Brașov",
    "public_transport": "platform",
    "shelter": "yes",
    "trolleybus": "yes",
    "wheelchair": "limited"
  }
},
{
  "type": "node",
  "id": 3407053697,
  "lat": 45.6695665,
  "lon": 25.6386828,
  "tags": {
    "bench": "yes",
    "bin": "yes",
    "bus": "yes",
    "departures_board": "timetable",
    "highway": "bus_stop",
    "lit": "yes",
    "name": "RAT Brașov",
    "network": "RAT Brașov",
    "network:wikidata": "Q7258031",
    "network:wikipedia": "ro:RATBV",
    "operator": "RAT Brașov",
    "public_transport": "platform",
    "shelter": "no",
    "trolleybus": "yes",
    "wheelchair": "limited"
  }
},
{
  "type": "node",
  "id": 3407053698,
  "lat": 45.6696900,
  "lon": 25.6384158,
  "tags": {
    "bench": "yes",
    "bin": "yes",
    "bus": "yes",
    "departures_board": "realtime",
    "highway": "bus_stop",
    "lit": "yes",
    "name": "RAT Brașov",
    "network": "RAT Brașov",
    "network:wikidata": "Q7258031",
    "network:wikipedia": "ro:RATBV",
    "operator": "RAT Brașov",
    "public_transport": "platform",
    "shelter": "yes",
    "trolleybus": "yes",
    "wheelchair": "limited"
  }
},
{
  "type": "node",
  "id": 3473944089,
  "lat": 45.6597398,
  "lon": 25.6080956,
  "tags": {
    "bench": "yes",
    "bin": "yes",
    "bus": "yes",
    "departures_board": "realtime",
    "highway": "bus_stop",
    "lit": "yes",
    "name": "Făget",
    "name:ro": "Făget",
    "network": "RAT Brașov",
    "network:wikidata": "Q7258031",
    "network:wikipedia": "ro:RATBV",
    "operator": "RAT Brașov",
    "passenger_information_display": "yes",
    "public_transport": "platform",
    "shelter": "yes",
    "trolleybus": "yes",
    "wheelchair": "limited"
  }
},
{
  "type": "node",
  "id": 3473944193,
  "lat": 45.6587755,
  "lon": 25.6066534,
  "tags": {
    "bench": "yes",
    "bin": "yes",
    "bus": "yes",
    "departures_board": "timetable",
    "highway": "bus_stop",
    "lit": "yes",
    "name": "Mircea cel Bătrân",
    "network": "RAT Brașov",
    "network:wikidata": "Q7258031",
    "network:wikipedia": "ro:RATBV",
    "operator": "RAT Brașov",
    "public_transport": "platform",
    "shelter": "yes",
    "trolleybus": "yes",
    "wheelchair": "limited"
  }
},
{
  "type": "node",
  "id": 3474036169,
  "lat": 45.6647951,
  "lon": 25.5840658,
  "tags": {
    "bench": "yes",
    "bin": "yes",
    "bus": "yes",
    "check_date:shelter": "2026-01-09",
    "departures_board": "timetable",
    "highway": "bus_stop",
    "lit": "yes",
    "name": "Stadionul Tineretului",
    "network": "RAT Brașov",
    "network:wikidata": "Q7258031",
    "network:wikipedia": "ro:RATBV",
    "operator": "RAT Brașov",
    "public_transport": "platform",
    "shelter": "no",
    "trolleybus": "yes",
    "wheelchair": "limited"
  }
},
{
  "type": "node",
  "id": 3640849654,
  "lat": 45.6514317,
  "lon": 25.6138925,
  "tags": {
    "bench": "yes",
    "bin": "yes",
    "bus": "yes",
    "departures_board": "realtime",
    "highway": "bus_stop",
    "lit": "yes",
    "name": "Hidro B",
    "network": "RAT Brașov",
    "network:wikidata": "Q7258031",
    "network:wikipedia": "ro:RATBV",
    "operator": "RAT Brașov",
    "public_transport": "platform",
    "shelter": "yes",
    "trolleybus": "yes",
    "wheelchair": "limited"
  }
},
{
  "type": "node",
  "id": 3652393629,
  "lat": 45.6632524,
  "lon": 25.6294289,
  "tags": {
    "bench": "yes",
    "bin": "yes",
    "bus": "yes",
    "departures_board": "realtime",
    "highway": "bus_stop",
    "name": "Autogara 3",
    "network": "RAT Brașov",
    "network:wikidata": "Q7258031",
    "network:wikipedia": "ro:RATBV",
    "operator": "RAT Brașov",
    "public_transport": "platform",
    "shelter": "yes",
    "trolleybus": "yes",
    "wheelchair": "limited"
  }
},
{
  "type": "node",
  "id": 3652393630,
  "lat": 45.6711087,
  "lon": 25.6409770,
  "tags": {
    "bus": "yes",
    "departures_board": "timetable",
    "highway": "bus_stop",
    "name": "Baza MTTC",
    "network": "RAT Brașov",
    "network:wikidata": "Q7258031",
    "network:wikipedia": "ro:RATBV",
    "operator": "RAT Brașov",
    "public_transport": "platform",
    "trolleybus": "yes",
    "wheelchair": "limited"
  }
},
{
  "type": "node",
  "id": 3652393631,
  "lat": 45.6510143,
  "lon": 25.6082315,
  "tags": {
    "bench": "yes",
    "bin": "yes",
    "bus": "yes",
    "departures_board": "timetable",
    "highway": "bus_stop",
    "lit": "yes",
    "name": "Camera de Comerț",
    "network": "RAT Brașov",
    "network:wikidata": "Q7258031",
    "network:wikipedia": "ro:RATBV",
    "operator": "RAT Brașov",
    "public_transport": "platform",
    "shelter": "yes",
    "trolleybus": "yes",
    "wheelchair": "limited"
  }
},
{
  "type": "node",
  "id": 3652436626,
  "lat": 45.6635081,
  "lon": 25.6305547,
  "tags": {
    "bench": "yes",
    "bin": "yes",
    "bus": "yes",
    "departures_board": "realtime",
    "highway": "bus_stop",
    "lit": "yes",
    "name": "Autogara 3",
    "network": "RAT Brașov",
    "network:wikidata": "Q7258031",
    "network:wikipedia": "ro:RATBV",
    "operator": "RAT Brașov",
    "public_transport": "platform",
    "shelter": "yes",
    "trolleybus": "yes",
    "wheelchair": "limited"
  }
},
{
  "type": "node",
  "id": 3652436627,
  "lat": 45.6712199,
  "lon": 25.6415101,
  "tags": {
    "bus": "yes",
    "departures_board": "timetable",
    "highway": "bus_stop",
    "name": "Baza MTTC",
    "network": "RAT Brașov",
    "network:wikidata": "Q7258031",
    "network:wikipedia": "ro:RATBV",
    "operator": "RAT Brașov",
    "public_transport": "platform",
    "trolleybus": "yes",
    "wheelchair": "limited"
  }
},
{
  "type": "node",
  "id": 3652436629,
  "lat": 45.6455214,
  "lon": 25.5880813,
  "tags": {
    "bench": "yes",
    "bin": "yes",
    "bus": "yes",
    "covered": "no",
    "gtfs_stop_code": "6",
    "highway": "bus_stop",
    "local_ref": "6",
    "name": "Livada Poștei",
    "network": "RAT Brașov",
    "network:wikidata": "Q7258031",
    "network:wikipedia": "ro:RATBV",
    "operator": "RAT Brașov",
    "passenger_information_display": "yes",
    "public_transport": "platform",
    "shelter": "yes",
    "tactile_paving": "no",
    "wheelchair": "limited"
  }
},
{
  "type": "node",
  "id": 3652436632,
  "lat": 45.6589696,
  "lon": 25.6228889,
  "tags": {
    "bench": "yes",
    "bin": "yes",
    "bus": "yes",
    "departures_board": "timetable",
    "highway": "bus_stop",
    "lit": "yes",
    "name": "Vlahuță",
    "network": "RAT Brașov",
    "network:wikidata": "Q7258031",
    "network:wikipedia": "ro:RATBV",
    "operator": "RAT Brașov",
    "public_transport": "platform",
    "shelter": "yes",
    "trolleybus": "yes",
    "wheelchair": "limited"
  }
},
{
  "type": "node",
  "id": 3652479572,
  "lat": 45.6685192,
  "lon": 25.6101786,
  "tags": {
    "bench": "yes",
    "bin": "yes",
    "bus": "yes",
    "departures_board": "realtime",
    "highway": "bus_stop",
    "lit": "yes",
    "name": "Colegiul Nicolae Titulescu",
    "network": "RAT Brașov",
    "network:wikidata": "Q7258031",
    "network:wikipedia": "ro:RATBV",
    "operator": "RAT Brașov",
    "public_transport": "platform",
    "shelter": "yes",
    "trolleybus": "yes",
    "wheelchair": "limited"
  }
},
{
  "type": "node",
  "id": 3652479573,
  "lat": 45.6697168,
  "lon": 25.6110421,
  "tags": {
    "bench": "yes",
    "bin": "yes",
    "bus": "yes",
    "departures_board": "timetable",
    "highway": "bus_stop",
    "lit": "yes",
    "name": "Colegiul Nicolae Titulescu",
    "network": "RAT Brașov",
    "network:wikidata": "Q7258031",
    "network:wikipedia": "ro:RATBV",
    "operator": "RAT Brașov",
    "public_transport": "platform",
    "shelter": "no",
    "trolleybus": "yes",
    "wheelchair": "limited"
  }
},
{
  "type": "node",
  "id": 3652479574,
  "lat": 45.6568685,
  "lon": 25.6062859,
  "tags": {
    "bench": "yes",
    "bin": "yes",
    "bus": "yes",
    "departures_board": "realtime",
    "highway": "bus_stop",
    "lit": "yes",
    "name": "Mircea cel Bătrân",
    "network": "RAT Brașov",
    "network:wikidata": "Q7258031",
    "network:wikipedia": "ro:RATBV",
    "operator": "RAT Brașov",
    "public_transport": "platform",
    "shelter": "yes",
    "trolleybus": "yes",
    "wheelchair": "limited"
  }
},
{
  "type": "node",
  "id": 3652479575,
  "lat": 45.6776719,
  "lon": 25.6138175,
  "tags": {
    "bench": "yes",
    "bin": "yes",
    "bus": "yes",
    "departures_board": "timetable",
    "description": "N. Labis",
    "highway": "bus_stop",
    "lit": "yes",
    "name": "Nicolae Labiș",
    "network": "RAT Brașov",
    "network:wikidata": "Q7258031",
    "network:wikipedia": "ro:RATBV",
    "operator": "RAT Brașov",
    "public_transport": "platform",
    "shelter": "no",
    "trolleybus": "yes",
    "wheelchair": "limited"
  }
},
{
  "type": "node",
  "id": 3652479576,
  "lat": 45.6771957,
  "lon": 25.6133391,
  "tags": {
    "bench": "yes",
    "bin": "yes",
    "bus": "yes",
    "departures_board": "realtime",
    "description": "N. Labis",
    "highway": "bus_stop",
    "lit": "yes",
    "name": "Nicolae Labiș",
    "network": "RAT Brașov",
    "network:wikidata": "Q7258031",
    "network:wikipedia": "ro:RATBV",
    "operator": "RAT Brașov",
    "passenger_information_display": "yes",
    "public_transport": "platform",
    "shelter": "yes",
    "tactile_paving": "no",
    "trolleybus": "yes",
    "wheelchair": "limited"
  }
},
{
  "type": "node",
  "id": 3652479577,
  "lat": 45.6668285,
  "lon": 25.6099574,
  "tags": {
    "bench": "yes",
    "bin": "yes",
    "bus": "yes",
    "departures_board": "realtime",
    "highway": "bus_stop",
    "lit": "yes",
    "name": "Tractorul",
    "network": "RAT Brașov",
    "network:wikidata": "Q7258031",
    "network:wikipedia": "ro:RATBV",
    "operator": "RAT Brașov",
    "public_transport": "platform",
    "shelter": "no",
    "trolleybus": "yes",
    "wheelchair": "limited"
  }
},
{
  "type": "node",
  "id": 3653874651,
  "lat": 45.6501587,
  "lon": 25.6230583,
  "tags": {
    "bench": "yes",
    "bin": "yes",
    "bus": "yes",
    "departures_board": "realtime",
    "highway": "bus_stop",
    "lit": "yes",
    "name": "Traian",
    "network": "RAT Brașov",
    "network:wikidata": "Q7258031",
    "network:wikipedia": "ro:RATBV",
    "operator": "RAT Brașov",
    "public_transport": "platform",
    "shelter": "yes",
    "trolleybus": "yes",
    "wheelchair": "limited"
  }
},
{
  "type": "node",
  "id": 3654024249,
  "lat": 45.6630273,
  "lon": 25.5762957,
  "tags": {
    "bench": "yes",
    "bin": "yes",
    "bus": "yes",
    "departures_board": "realtime",
    "highway": "bus_stop",
    "lit": "yes",
    "name": "Bartolomeu Gară",
    "network": "RAT Brașov",
    "network:wikidata": "Q7258031",
    "network:wikipedia": "ro:RATBV",
    "operator": "RAT Brașov",
    "public_transport": "platform",
    "shelter": "yes",
    "wheelchair": "limited"
  }
},
{
  "type": "node",
  "id": 3654024250,
  "lat": 45.6635620,
  "lon": 25.5788149,
  "tags": {
    "bench": "yes",
    "bin": "yes",
    "bus": "yes",
    "check_date:shelter": "2026-01-09",
    "departures_board": "realtime",
    "highway": "bus_stop",
    "lit": "yes",
    "name": "Complex Bartolomeu",
    "network": "RAT Brașov",
    "network:wikidata": "Q7258031",
    "network:wikipedia": "ro:RATBV",
    "operator": "RAT Brașov",
    "public_transport": "platform",
    "shelter": "yes",
    "wheelchair": "limited"
  }
},
{
  "type": "node",
  "id": 3654024251,
  "lat": 45.6652820,
  "lon": 25.5841191,
  "tags": {
    "bench": "yes",
    "bin": "yes",
    "bus": "yes",
    "departures_board": "timetable",
    "highway": "bus_stop",
    "lit": "yes",
    "name": "Ecaterina Teodoroiu",
    "network": "RAT Brașov",
    "network:wikidata": "Q7258031",
    "network:wikipedia": "ro:RATBV",
    "operator": "RAT Brașov",
    "public_transport": "platform",
    "shelter": "no",
    "wheelchair": "limited"
  }
},
{
  "type": "node",
  "id": 3654024252,
  "lat": 45.6653524,
  "lon": 25.5837089,
  "tags": {
    "bench": "no",
    "bin": "yes",
    "bus": "yes",
    "departures_board": "timetable",
    "highway": "bus_stop",
    "name": "Ecaterina Teodoroiu",
    "network": "RAT Brașov",
    "network:wikidata": "Q7258031",
    "network:wikipedia": "ro:RATBV",
    "operator": "RAT Brașov",
    "public_transport": "platform",
    "shelter": "no",
    "wheelchair": "limited"
  }
},
{
  "type": "node",
  "id": 3654024253,
  "lat": 45.6664130,
  "lon": 25.5890145,
  "tags": {
    "bench": "yes",
    "bin": "yes",
    "bus": "yes",
    "check_date:shelter": "2026-01-09",
    "departures_board": "timetable",
    "highway": "bus_stop",
    "lit": "yes",
    "name": "Huniade",
    "network": "RAT Brașov",
    "network:wikidata": "Q7258031",
    "network:wikipedia": "ro:RATBV",
    "operator": "RAT Brașov",
    "public_transport": "platform",
    "shelter": "no",
    "wheelchair": "limited"
  }
},
{
  "type": "node",
  "id": 3654024254,
  "lat": 45.6663846,
  "lon": 25.5884694,
  "tags": {
    "bench": "no",
    "bin": "yes",
    "bus": "yes",
    "departures_board": "timetable",
    "highway": "bus_stop",
    "name": "Huniade",
    "network": "RAT Brașov",
    "network:wikidata": "Q7258031",
    "network:wikipedia": "ro:RATBV",
    "operator": "RAT Brașov",
    "public_transport": "platform",
    "shelter": "no",
    "wheelchair": "limited"
  }
},
{
  "type": "node",
  "id": 3654024255,
  "lat": 45.6659647,
  "lon": 25.6047079,
  "tags": {
    "bench": "yes",
    "bin": "yes",
    "bus": "yes",
    "departures_board": "timetable",
    "highway": "bus_stop",
    "lit": "yes",
    "name": "Piața Tractorul",
    "network": "RAT Brașov",
    "network:wikidata": "Q7258031",
    "network:wikipedia": "ro:RATBV",
    "operator": "RAT Brașov",
    "public_transport": "platform",
    "shelter": "yes",
    "wheelchair": "limited"
  }
},
{
  "type": "node",
  "id": 3701356184,
  "lat": 45.6478919,
  "lon": 25.5887933,
  "tags": {
    "bench": "yes",
    "bin": "yes",
    "bus": "yes",
    "departures_board": "timetable",
    "highway": "bus_stop",
    "lit": "yes",
    "name": "Astra",
    "network": "RAT Brașov",
    "network:wikidata": "Q7258031",
    "network:wikipedia": "ro:RATBV",
    "operator": "RAT Brașov",
    "public_transport": "platform",
    "shelter": "yes",
    "wheelchair": "limited"
  }
},
{
  "type": "node",
  "id": 3701356185,
  "lat": 45.6627905,
  "lon": 25.5780697,
  "tags": {
    "bench": "yes",
    "bin": "yes",
    "bus": "yes",
    "departures_board": "realtime",
    "highway": "bus_stop",
    "lit": "yes",
    "name": "Biserica Bartolomeu",
    "network": "RAT Brașov",
    "network:wikidata": "Q7258031",
    "network:wikipedia": "ro:RATBV",
    "operator": "RAT Brașov",
    "public_transport": "platform",
    "shelter": "yes",
    "wheelchair": "limited"
  }
},
{
  "type": "node",
  "id": 3701356186,
  "lat": 45.6518096,
  "lon": 25.5858936,
  "tags": {
    "bench": "yes",
    "bin": "yes",
    "bus": "yes",
    "departures_board": "realtime",
    "highway": "bus_stop",
    "lit": "yes",
    "name": "Bisericii Române",
    "network": "RAT Brașov",
    "network:wikidata": "Q7258031",
    "network:wikipedia": "ro:RATBV",
    "operator": "RAT Brașov",
    "public_transport": "platform",
    "shelter": "yes",
    "wheelchair": "limited"
  }
},
{
  "type": "node",
  "id": 3701356187,
  "lat": 45.6524508,
  "lon": 25.5853926,
  "tags": {
    "bench": "yes",
    "bin": "yes",
    "bus": "yes",
    "departures_board": "realtime",
    "highway": "bus_stop",
    "lit": "yes",
    "name": "Bisericii Române",
    "network": "RAT Brașov",
    "network:wikidata": "Q7258031",
    "network:wikipedia": "ro:RATBV",
    "operator": "RAT Brașov",
    "public_transport": "platform",
    "shelter": "yes",
    "wheelchair": "limited"
  }
},
{
  "type": "node",
  "id": 3701356188,
  "lat": 45.6580981,
  "lon": 25.5806150,
  "tags": {
    "bench": "yes",
    "bin": "yes",
    "bus": "yes",
    "departures_board": "realtime",
    "highway": "bus_stop",
    "lit": "yes",
    "name": "Carierei",
    "network": "RAT Brașov",
    "network:wikidata": "Q7258031",
    "network:wikipedia": "ro:RATBV",
    "operator": "RAT Brașov",
    "public_transport": "platform",
    "shelter": "yes",
    "wheelchair": "limited"
  }
},
{
  "type": "node",
  "id": 3701356189,
  "lat": 45.6593525,
  "lon": 25.5801251,
  "tags": {
    "bench": "yes",
    "bin": "yes",
    "bus": "yes",
    "departures_board": "timetable",
    "highway": "bus_stop",
    "lit": "yes",
    "name": "Carierei",
    "network": "RAT Brașov",
    "network:wikidata": "Q7258031",
    "network:wikipedia": "ro:RATBV",
    "operator": "RAT Brașov",
    "public_transport": "platform",
    "shelter": "no",
    "wheelchair": "limited"
  }
},
{
  "type": "node",
  "id": 3701356190,
  "lat": 45.6433484,
  "lon": 25.6242806,
  "tags": {
    "bench": "yes",
    "bin": "yes",
    "bus": "yes",
    "departures_board": "realtime",
    "highway": "bus_stop",
    "lit": "yes",
    "name": "Liceul de Informatică",
    "network": "RAT Brașov",
    "network:wikidata": "Q7258031",
    "network:wikipedia": "ro:RATBV",
    "operator": "RAT Brașov",
    "public_transport": "platform",
    "shelter": "yes",
    "wheelchair": "limited"
  }
},
{
  "type": "node",
  "id": 3701356191,
  "lat": 45.6550329,
  "lon": 25.5827737,
  "tags": {
    "bench": "yes",
    "bin": "yes",
    "bus": "yes",
    "departures_board": "timetable",
    "highway": "bus_stop",
    "lit": "yes",
    "name": "Memorandului",
    "network": "RAT Brașov",
    "network:wikidata": "Q7258031",
    "network:wikipedia": "ro:RATBV",
    "operator": "RAT Brașov",
    "public_transport": "platform",
    "shelter": "no",
    "wheelchair": "limited"
  }
},
{
  "type": "node",
  "id": 3701356192,
  "lat": 45.6550259,
  "lon": 25.5829608,
  "tags": {
    "bench": "yes",
    "bin": "yes",
    "bus": "yes",
    "departures_board": "realtime",
    "highway": "bus_stop",
    "lit": "yes",
    "name": "Memorandului",
    "network": "RAT Brașov",
    "network:wikidata": "Q7258031",
    "network:wikipedia": "ro:RATBV",
    "operator": "RAT Brașov",
    "public_transport": "platform",
    "shelter": "yes",
    "wheelchair": "limited"
  }
},
{
  "type": "node",
  "id": 3701356193,
  "lat": 45.6371581,
  "lon": 25.6222947,
  "tags": {
    "bench": "yes",
    "bin": "yes",
    "bus": "yes",
    "departures_board": "timetable",
    "highway": "bus_stop",
    "lit": "no",
    "name": "Pompieri",
    "network": "RAT Brașov",
    "network:wikidata": "Q7258031",
    "network:wikipedia": "ro:RATBV",
    "operator": "RAT Brașov",
    "public_transport": "platform",
    "shelter": "yes",
    "wheelchair": "limited"
  }
},
{
  "type": "node",
  "id": 3701356195,
  "lat": 45.6370002,
  "lon": 25.6313461,
  "tags": {
    "bench": "yes",
    "bin": "yes",
    "bus": "yes",
    "departures_board": "realtime",
    "highway": "bus_stop",
    "lit": "yes",
    "name": "Soarelui",
    "network": "RAT Brașov",
    "network:wikidata": "Q7258031",
    "network:wikipedia": "ro:RATBV",
    "operator": "RAT Brașov",
    "public_transport": "platform",
    "shelter": "yes",
    "wheelchair": "limited"
  }
},
{
  "type": "node",
  "id": 3701356196,
  "lat": 45.6488106,
  "lon": 25.6187292,
  "tags": {
    "bench": "yes",
    "bin": "yes",
    "bus": "yes",
    "departures_board": "realtime",
    "highway": "bus_stop",
    "lit": "yes",
    "name": "Spitalul Județean",
    "network": "RAT Brașov",
    "network:wikidata": "Q7258031",
    "network:wikipedia": "ro:RATBV",
    "operator": "RAT Brașov",
    "public_transport": "platform",
    "shelter": "no",
    "trolleybus": "yes",
    "wheelchair": "limited"
  }
},
{
  "type": "node",
  "id": 3701356197,
  "lat": 45.6525755,
  "lon": 25.6157688,
  "tags": {
    "bench": "yes",
    "bin": "yes",
    "bus": "yes",
    "departures_board": "realtime",
    "highway": "bus_stop",
    "lit": "yes",
    "name": "Toamnei",
    "network": "RAT Brașov",
    "network:wikidata": "Q7258031",
    "network:wikipedia": "ro:RATBV",
    "operator": "RAT Brașov",
    "public_transport": "platform",
    "shelter": "yes",
    "trolleybus": "yes",
    "wheelchair": "limited"
  }
},
{
  "type": "node",
  "id": 3701409064,
  "lat": 45.6371218,
  "lon": 25.6365179,
  "tags": {
    "bench": "yes",
    "bin": "yes",
    "bus": "yes",
    "departures_board": "realtime",
    "highway": "bus_stop",
    "lit": "yes",
    "name": "Cometei",
    "network": "RAT Brașov",
    "network:wikidata": "Q7258031",
    "network:wikipedia": "ro:RATBV",
    "operator": "RAT Brașov",
    "public_transport": "platform",
    "shelter": "yes",
    "tactile_paving": "no",
    "trolleybus": "yes",
    "wheelchair": "yes"
  }
},
{
  "type": "node",
  "id": 3701409066,
  "lat": 45.6346783,
  "lon": 25.6358717,
  "tags": {
    "bench": "yes",
    "bin": "yes",
    "bus": "yes",
    "covered": "yes",
    "departures_board": "realtime",
    "gtfs_stop_code": "7",
    "highway": "bus_stop",
    "lit": "yes",
    "local_ref": "7",
    "name": "Saturn",
    "network": "RAT Brașov",
    "network:wikidata": "Q7258031",
    "network:wikipedia": "ro:RATBV",
    "operator": "RAT Brașov",
    "passenger_information_display": "yes",
    "public_transport": "platform",
    "shelter": "yes",
    "tactile_paving": "no",
    "trolleybus": "yes",
    "wheelchair": "yes"
  }
},
{
  "type": "node",
  "id": 3701493888,
  "lat": 45.6583356,
  "lon": 25.5633734,
  "tags": {
    "bench": "yes",
    "bin": "yes",
    "bus": "yes",
    "departures_board": "realtime",
    "highway": "bus_stop",
    "lit": "yes",
    "name": "Cărămidăriei",
    "network": "RAT Brașov",
    "network:wikidata": "Q7258031",
    "network:wikipedia": "ro:RATBV",
    "operator": "RAT Brașov",
    "public_transport": "platform",
    "shelter": "yes",
    "wheelchair": "limited"
  }
},
{
  "type": "node",
  "id": 3701493889,
  "lat": 45.6595715,
  "lon": 25.5666734,
  "tags": {
    "bench": "yes",
    "bin": "yes",
    "bus": "yes",
    "departures_board": "timetable",
    "highway": "bus_stop",
    "name": "Service",
    "network": "RAT Brașov",
    "network:wikidata": "Q7258031",
    "network:wikipedia": "ro:RATBV",
    "operator": "RAT Brașov",
    "public_transport": "platform",
    "shelter": "no",
    "wheelchair": "limited"
  }
},
{
  "type": "node",
  "id": 3701534855,
  "lat": 45.6661018,
  "lon": 25.5888806,
  "tags": {
    "bench": "yes",
    "bin": "yes",
    "bus": "yes",
    "departures_board": "realtime",
    "highway": "bus_stop",
    "name": "Fartec",
    "network": "RAT Brașov",
    "network:wikidata": "Q7258031",
    "network:wikipedia": "ro:RATBV",
    "operator": "RAT Brașov",
    "public_transport": "platform",
    "shelter": "yes",
    "trolleybus": "yes",
    "wheelchair": "limited"
  }
},
{
  "type": "node",
  "id": 3701600885,
  "lat": 45.6222468,
  "lon": 25.6465867,
  "tags": {
    "bench": "yes",
    "bin": "yes",
    "bus": "yes",
    "departures_board": "realtime",
    "highway": "bus_stop",
    "name": "Metro",
    "network": "RAT Brașov",
    "network:wikidata": "Q7258031",
    "network:wikipedia": "ro:RATBV",
    "operator": "RAT Brașov",
    "public_transport": "platform",
    "shelter": "no",
    "wheelchair": "limited"
  }
},
{
  "type": "node",
  "id": 3701600887,
  "lat": 45.6346775,
  "lon": 25.6332897,
  "tags": {
    "bench": "yes",
    "bin": "yes",
    "bus": "yes",
    "departures_board": "timetable",
    "highway": "bus_stop",
    "lit": "yes",
    "name": "Poienelor",
    "network": "RAT Brașov",
    "network:wikidata": "Q7258031",
    "network:wikipedia": "ro:RATBV",
    "operator": "RAT Brașov",
    "public_transport": "platform",
    "shelter": "yes",
    "wheelchair": "limited"
  }
},
{
  "type": "node",
  "id": 3707775824,
  "lat": 45.6645442,
  "lon": 25.5779041,
  "tags": {
    "bench": "yes",
    "bin": "yes",
    "bus": "yes",
    "departures_board": "timetable",
    "highway": "bus_stop",
    "name": "Bariera Bartolomeu",
    "network": "RAT Brașov",
    "network:wikidata": "Q7258031",
    "network:wikipedia": "ro:RATBV",
    "operator": "RAT Brașov",
    "public_transport": "platform",
    "shelter": "no",
    "wheelchair": "limited"
  }
},
{
  "type": "node",
  "id": 3707786425,
  "lat": 45.6710752,
  "lon": 25.5792146,
  "tags": {
    "bench": "no",
    "bin": "yes",
    "bus": "yes",
    "departures_board": "timetable",
    "highway": "bus_stop",
    "name": "Conforest",
    "network": "RAT Brașov",
    "network:wikidata": "Q7258031",
    "network:wikipedia": "ro:RATBV",
    "operator": "RAT Brașov",
    "public_transport": "platform",
    "shelter": "no",
    "wheelchair": "limited"
  }
},
{
  "type": "node",
  "id": 3707786426,
  "lat": 45.6875433,
  "lon": 25.5829245,
  "tags": {
    "bench": "yes",
    "bin": "yes",
    "bus": "yes",
    "departures_board": "timetable",
    "highway": "bus_stop",
    "name": "Elmas",
    "network": "RAT Brașov",
    "network:wikidata": "Q7258031",
    "network:wikipedia": "ro:RATBV",
    "operator": "RAT Brașov",
    "public_transport": "platform",
    "shelter": "no",
    "wheelchair": "limited"
  }
},
{
  "type": "node",
  "id": 3707786427,
  "lat": 45.7013176,
  "lon": 25.5643289,
  "tags": {
    "bench": "no",
    "bin": "yes",
    "bus": "yes",
    "departures_board": "timetable",
    "highway": "bus_stop",
    "name": "Augustin Tătaru",
    "network": "RAT Brașov",
    "network:wikidata": "Q7258031",
    "network:wikipedia": "ro:RATBV",
    "operator": "RAT Brașov",
    "public_transport": "platform",
    "shelter": "no",
    "wheelchair": "limited"
  }
},
{
  "type": "node",
  "id": 3707786428,
  "lat": 45.7053121,
  "lon": 25.5720801,
  "tags": {
    "bench": "no",
    "bin": "yes",
    "bus": "yes",
    "departures_board": "timetable",
    "highway": "bus_stop",
    "name": "Fagurului",
    "network": "RAT Brașov",
    "network:wikidata": "Q7258031",
    "network:wikipedia": "ro:RATBV",
    "operator": "RAT Brașov",
    "public_transport": "platform",
    "shelter": "no",
    "wheelchair": "limited"
  }
},
{
  "type": "node",
  "id": 3707786429,
  "lat": 45.7082131,
  "lon": 25.5790782,
  "tags": {
    "bin": "no",
    "bus": "yes",
    "departures_board": "timetable",
    "highway": "bus_stop",
    "name": "Feldioarei",
    "network": "RAT Brașov",
    "network:wikidata": "Q7258031",
    "network:wikipedia": "ro:RATBV",
    "operator": "RAT Brașov",
    "public_transport": "platform",
    "shelter": "no",
    "tactile_paving": "no",
    "wheelchair": "limited"
  }
},
{
  "type": "node",
  "id": 3707786430,
  "lat": 45.7077466,
  "lon": 25.5758220,
  "tags": {
    "bench": "no",
    "bin": "yes",
    "bus": "yes",
    "departures_board": "timetable",
    "highway": "bus_stop",
    "name": "Fântânii",
    "network": "RAT Brașov",
    "network:wikidata": "Q7258031",
    "network:wikipedia": "ro:RATBV",
    "operator": "RAT Brașov",
    "public_transport": "platform",
    "shelter": "no",
    "wheelchair": "limited"
  }
},
{
  "type": "node",
  "id": 3707786431,
  "lat": 45.6670835,
  "lon": 25.5778495,
  "tags": {
    "bench": "no",
    "bin": "yes",
    "bus": "yes",
    "departures_board": "timetable",
    "highway": "bus_stop",
    "name": "Gheorghe Doja",
    "network": "RAT Brașov",
    "network:wikidata": "Q7258031",
    "network:wikipedia": "ro:RATBV",
    "operator": "RAT Brașov",
    "public_transport": "platform",
    "shelter": "no",
    "wheelchair": "limited"
  }
},
{
  "type": "node",
  "id": 3707786432,
  "lat": 45.7055533,
  "lon": 25.5805739,
  "tags": {
    "bench": "yes",
    "bin": "yes",
    "bus": "yes",
    "departures_board": "timetable",
    "highway": "bus_stop",
    "name": "Mondotrans",
    "network": "RAT Brașov",
    "network:wikidata": "Q7258031",
    "network:wikipedia": "ro:RATBV",
    "operator": "RAT Brașov",
    "public_transport": "platform",
    "shelter": "no",
    "wheelchair": "limited"
  }
},
{
  "type": "node",
  "id": 3707786433,
  "lat": 45.6823008,
  "lon": 25.5817844,
  "tags": {
    "bench": "no",
    "bin": "yes",
    "bus": "yes",
    "departures_board": "timetable",
    "highway": "bus_stop",
    "name": "Oligopol",
    "network": "RAT Brașov",
    "network:wikidata": "Q7258031",
    "network:wikipedia": "ro:RATBV",
    "operator": "RAT Brașov",
    "public_transport": "platform",
    "shelter": "no",
    "wheelchair": "limited"
  }
},
{
  "type": "node",
  "id": 3707786434,
  "lat": 45.6989182,
  "lon": 25.5578475,
  "tags": {
    "bench": "no",
    "bin": "yes",
    "bus": "yes",
    "departures_board": "timetable",
    "highway": "bus_stop",
    "name": "Stupini Centru",
    "network": "RAT Brașov",
    "network:wikidata": "Q7258031",
    "network:wikipedia": "ro:RATBV",
    "operator": "RAT Brașov",
    "public_transport": "platform",
    "shelter": "no",
    "wheelchair": "limited"
  }
},
{
  "type": "node",
  "id": 3707786435,
  "lat": 45.6938328,
  "lon": 25.5523383,
  "tags": {
    "bench": "yes",
    "bin": "yes",
    "bus": "yes",
    "departures_board": "timetable",
    "highway": "bus_stop",
    "name": "Surlașului",
    "network": "RAT Brașov",
    "network:wikidata": "Q7258031",
    "network:wikipedia": "ro:RATBV",
    "operator": "RAT Brașov",
    "public_transport": "platform",
    "shelter": "no",
    "wheelchair": "limited"
  }
},
{
  "type": "node",
  "id": 3707786436,
  "lat": 45.6983719,
  "lon": 25.5820627,
  "tags": {
    "bench": "yes",
    "bin": "yes",
    "bus": "yes",
    "departures_board": "timetable",
    "highway": "bus_stop",
    "lit": "yes",
    "name": "Tipografia Brastar",
    "network": "RAT Brașov",
    "network:wikidata": "Q7258031",
    "network:wikipedia": "ro:RATBV",
    "operator": "RAT Brașov",
    "public_transport": "platform",
    "shelter": "no",
    "wheelchair": "limited"
  }
},
{
  "type": "node",
  "id": 3707786437,
  "lat": 45.6762856,
  "lon": 25.5804104,
  "tags": {
    "bench": "no",
    "bin": "yes",
    "bus": "yes",
    "departures_board": "timetable",
    "highway": "bus_stop",
    "name": "Unitate Militară",
    "network": "RAT Brașov",
    "network:wikidata": "Q7258031",
    "network:wikipedia": "ro:RATBV",
    "operator": "RAT Brașov",
    "public_transport": "platform",
    "shelter": "no",
    "wheelchair": "limited"
  }
},
{
  "type": "node",
  "id": 3707795549,
  "lat": 45.6861726,
  "lon": 25.5363162,
  "tags": {
    "bench": "yes",
    "bin": "no",
    "bus": "yes",
    "departures_board": "timetable",
    "highway": "bus_stop",
    "name": "Case",
    "network": "RAT Brașov",
    "network:wikidata": "Q7258031",
    "network:wikipedia": "ro:RATBV",
    "operator": "RAT Brașov",
    "public_transport": "platform",
    "shelter": "no",
    "wheelchair": "limited"
  }
},
{
  "type": "node",
  "id": 3707795550,
  "lat": 45.6898969,
  "lon": 25.5469273,
  "tags": {
    "bench": "no",
    "bin": "yes",
    "bus": "yes",
    "departures_board": "timetable",
    "highway": "bus_stop",
    "name": "Ghimbășel",
    "network": "RAT Brașov",
    "network:wikidata": "Q7258031",
    "network:wikipedia": "ro:RATBV",
    "operator": "RAT Brașov",
    "public_transport": "platform",
    "shelter": "no",
    "wheelchair": "limited"
  }
},
{
  "type": "node",
  "id": 3707795551,
  "lat": 45.6916418,
  "lon": 25.5489943,
  "tags": {
    "bench": "no",
    "bin": "yes",
    "bus": "yes",
    "departures_board": "timetable",
    "highway": "bus_stop",
    "name": "Nicovalei",
    "network": "RAT Brașov",
    "network:wikidata": "Q7258031",
    "network:wikipedia": "ro:RATBV",
    "operator": "RAT Brașov",
    "public_transport": "platform",
    "shelter": "no",
    "wheelchair": "limited"
  }
},
{
  "type": "node",
  "id": 3707831693,
  "lat": 45.6895838,
  "lon": 25.5830845,
  "tags": {
    "bench": "yes",
    "bin": "yes",
    "bus": "yes",
    "departures_board": "timetable",
    "highway": "bus_stop",
    "name": "Agetaps",
    "network": "RAT Brașov",
    "network:wikidata": "Q7258031",
    "network:wikipedia": "ro:RATBV",
    "operator": "RAT Brașov",
    "public_transport": "platform",
    "shelter": "no",
    "wheelchair": "limited"
  }
},
{
  "type": "node",
  "id": 3707831699,
  "lat": 45.7010126,
  "lon": 25.5640475,
  "tags": {
    "bench": "no",
    "bin": "yes",
    "bus": "yes",
    "departures_board": "timetable",
    "highway": "bus_stop",
    "name": "Augustin Tătaru",
    "network": "RAT Brașov",
    "network:wikidata": "Q7258031",
    "network:wikipedia": "ro:RATBV",
    "operator": "RAT Brașov",
    "public_transport": "platform",
    "shelter": "no",
    "wheelchair": "limited"
  }
},
{
  "type": "node",
  "id": 3707831700,
  "lat": 45.7050865,
  "lon": 25.5720250,
  "tags": {
    "bench": "no",
    "bin": "no",
    "bus": "yes",
    "departures_board": "timetable",
    "highway": "bus_stop",
    "name": "Fagurului",
    "network": "RAT Brașov",
    "network:wikidata": "Q7258031",
    "network:wikipedia": "ro:RATBV",
    "operator": "RAT Brașov",
    "public_transport": "platform",
    "shelter": "no",
    "wheelchair": "limited"
  }
},
{
  "type": "node",
  "id": 3707831701,
  "lat": 45.7081683,
  "lon": 25.5796111,
  "tags": {
    "bin": "yes",
    "bus": "yes",
    "departures_board": "timetable",
    "highway": "bus_stop",
    "name": "Feldioarei",
    "network": "RAT Brașov",
    "network:wikidata": "Q7258031",
    "network:wikipedia": "ro:RATBV",
    "operator": "RAT Brașov",
    "public_transport": "platform",
    "shelter": "yes",
    "tactile_paving": "no",
    "wheelchair": "limited"
  }
},
{
  "type": "node",
  "id": 3707831703,
  "lat": 45.7074136,
  "lon": 25.5752512,
  "tags": {
    "bench": "no",
    "bin": "yes",
    "bus": "yes",
    "departures_board": "timetable",
    "highway": "bus_stop",
    "name": "Fântânii",
    "network": "RAT Brașov",
    "network:wikidata": "Q7258031",
    "network:wikipedia": "ro:RATBV",
    "operator": "RAT Brașov",
    "public_transport": "platform",
    "shelter": "no",
    "wheelchair": "limited"
  }
},
{
  "type": "node",
  "id": 3707831705,
  "lat": 45.7061760,
  "lon": 25.5803515,
  "tags": {
    "bench": "yes",
    "bin": "yes",
    "bus": "yes",
    "departures_board": "timetable",
    "highway": "bus_stop",
    "name": "Mondotrans",
    "network": "RAT Brașov",
    "network:wikidata": "Q7258031",
    "network:wikipedia": "ro:RATBV",
    "operator": "RAT Brașov",
    "public_transport": "platform",
    "shelter": "no",
    "wheelchair": "limited"
  }
},
{
  "type": "node",
  "id": 3707831709,
  "lat": 45.6979176,
  "lon": 25.5820298,
  "tags": {
    "bench": "yes",
    "bin": "yes",
    "bus": "yes",
    "departures_board": "timetable",
    "highway": "bus_stop",
    "lit": "yes",
    "name": "Tipografia Brastar",
    "network": "RAT Brașov",
    "network:wikidata": "Q7258031",
    "network:wikipedia": "ro:RATBV",
    "operator": "RAT Brașov",
    "public_transport": "platform",
    "shelter": "no",
    "wheelchair": "limited"
  }
},
{
  "type": "node",
  "id": 3708889555,
  "lat": 45.6858504,
  "lon": 25.5366215,
  "tags": {
    "bench": "yes",
    "bin": "yes",
    "bus": "yes",
    "departures_board": "timetable",
    "highway": "bus_stop",
    "name": "Case",
    "network": "RAT Brașov",
    "network:wikidata": "Q7258031",
    "network:wikipedia": "ro:RATBV",
    "operator": "RAT Brașov",
    "public_transport": "platform",
    "shelter": "no",
    "wheelchair": "limited"
  }
},
{
  "type": "node",
  "id": 3708889556,
  "lat": 45.6710065,
  "lon": 25.5790481,
  "tags": {
    "bench": "no",
    "bin": "yes",
    "bus": "yes",
    "departures_board": "timetable",
    "highway": "bus_stop",
    "name": "Conforest",
    "network": "RAT Brașov",
    "network:wikidata": "Q7258031",
    "network:wikipedia": "ro:RATBV",
    "operator": "RAT Brașov",
    "public_transport": "platform",
    "shelter": "no",
    "wheelchair": "limited"
  }
},
{
  "type": "node",
  "id": 3708889557,
  "lat": 45.6194958,
  "lon": 25.5429853,
  "tags": {
    "bus": "yes",
    "departures_board": "timetable",
    "fare_zone": "PoianaBrasov",
    "highway": "bus_stop",
    "name": "Braniște",
    "network": "RAT Brașov",
    "network:wikidata": "Q7258031",
    "network:wikipedia": "ro:RATBV",
    "operator": "RAT Brașov",
    "public_transport": "platform",
    "shelter": "no",
    "wheelchair": "limited"
  }
},
{
  "type": "node",
  "id": 3708889558,
  "lat": 45.6903990,
  "lon": 25.5476737,
  "tags": {
    "bench": "no",
    "bin": "no",
    "bus": "yes",
    "departures_board": "timetable",
    "highway": "bus_stop",
    "name": "Ghimbășel",
    "network": "RAT Brașov",
    "network:wikidata": "Q7258031",
    "network:wikipedia": "ro:RATBV",
    "operator": "RAT Brașov",
    "public_transport": "platform",
    "shelter": "no",
    "wheelchair": "limited"
  }
},
{
  "type": "node",
  "id": 3708889559,
  "lat": 45.6426000,
  "lon": 25.5644036,
  "tags": {
    "bus": "yes",
    "departures_board": "timetable",
    "fare_zone": "PoianaBrasov",
    "highway": "bus_stop",
    "name": "Piscului",
    "network": "RAT Brașov",
    "network:wikidata": "Q7258031",
    "network:wikipedia": "ro:RATBV",
    "operator": "RAT Brașov",
    "public_transport": "platform",
    "shelter": "no",
    "wheelchair": "limited"
  }
},
{
  "type": "node",
  "id": 3708889560,
  "lat": 45.6456317,
  "lon": 25.5801916,
  "tags": {
    "bench": "yes",
    "bus": "yes",
    "departures_board": "timetable",
    "highway": "bus_stop",
    "name": "Bellevue Residence",
    "network": "RAT Brașov",
    "network:wikidata": "Q7258031",
    "network:wikipedia": "ro:RATBV",
    "operator": "RAT Brașov",
    "public_transport": "platform",
    "shelter": "no",
    "wheelchair": "limited"
  }
},
{
  "type": "node",
  "id": 3708889561,
  "lat": 45.6919165,
  "lon": 25.5495501,
  "tags": {
    "bench": "no",
    "bin": "no",
    "bus": "yes",
    "departures_board": "timetable",
    "highway": "bus_stop",
    "name": "Nicovalei",
    "network": "RAT Brașov",
    "network:wikidata": "Q7258031",
    "network:wikipedia": "ro:RATBV",
    "operator": "RAT Brașov",
    "public_transport": "platform",
    "shelter": "no",
    "wheelchair": "limited"
  }
},
{
  "type": "node",
  "id": 3708889565,
  "lat": 45.6855842,
  "lon": 25.5414182,
  "tags": {
    "bench": "no",
    "bin": "yes",
    "bus": "yes",
    "departures_board": "timetable",
    "highway": "bus_stop",
    "name": "Fundăturii",
    "network": "RAT Brașov",
    "network:wikidata": "Q7258031",
    "network:wikipedia": "ro:RATBV",
    "operator": "RAT Brașov",
    "public_transport": "platform",
    "shelter": "no",
    "wheelchair": "limited"
  }
},
{
  "type": "node",
  "id": 3708889567,
  "lat": 45.6677484,
  "lon": 25.5779618,
  "tags": {
    "bench": "no",
    "bin": "yes",
    "bus": "yes",
    "departures_board": "timetable",
    "highway": "bus_stop",
    "name": "Gheorghe Doja",
    "network": "RAT Brașov",
    "network:wikidata": "Q7258031",
    "network:wikipedia": "ro:RATBV",
    "operator": "RAT Brașov",
    "public_transport": "platform",
    "shelter": "no",
    "wheelchair": "limited"
  }
},
{
  "type": "node",
  "id": 3708889569,
  "lat": 45.6818740,
  "lon": 25.5815197,
  "tags": {
    "bench": "no",
    "bin": "yes",
    "bus": "yes",
    "departures_board": "timetable",
    "highway": "bus_stop",
    "name": "Oligopol",
    "network": "RAT Brașov",
    "network:wikidata": "Q7258031",
    "network:wikipedia": "ro:RATBV",
    "operator": "RAT Brașov",
    "public_transport": "platform",
    "shelter": "no",
    "wheelchair": "limited"
  }
},
{
  "type": "node",
  "id": 3708889570,
  "lat": 45.5948026,
  "lon": 25.5532648,
  "tags": {
    "bench": "yes",
    "bin": "yes",
    "bus": "yes",
    "departures_board": "realtime",
    "fare_zone": "PoianaBrasov",
    "highway": "bus_stop",
    "local_ref": "1",
    "name": "Poiana Brașov",
    "network": "RAT Brașov",
    "network:wikidata": "Q7258031",
    "network:wikipedia": "ro:RATBV",
    "operator": "RAT Brașov",
    "public_transport": "platform",
    "shelter": "yes",
    "wheelchair": "limited"
  }
},
{
  "type": "node",
  "id": 3708889571,
  "lat": 45.6078886,
  "lon": 25.5541420,
  "tags": {
    "bench": "yes",
    "bin": "no",
    "bus": "yes",
    "departures_board": "timetable",
    "fare_zone": "PoianaBrasov",
    "highway": "bus_stop",
    "name": "Poiana Mică",
    "network": "RAT Brașov",
    "network:wikidata": "Q7258031",
    "network:wikipedia": "ro:RATBV",
    "operator": "RAT Brașov",
    "public_transport": "platform",
    "shelter": "no",
    "wheelchair": "limited"
  }
},
{
  "type": "node",
  "id": 3708889572,
  "lat": 45.6984296,
  "lon": 25.5588604,
  "tags": {
    "bench": "yes",
    "bin": "yes",
    "bus": "yes",
    "departures_board": "timetable",
    "highway": "bus_stop",
    "name": "Stupini Centru",
    "network": "RAT Brașov",
    "network:wikidata": "Q7258031",
    "network:wikipedia": "ro:RATBV",
    "operator": "RAT Brașov",
    "public_transport": "platform",
    "shelter": "yes",
    "wheelchair": "limited"
  }
},
{
  "type": "node",
  "id": 3708889575,
  "lat": 45.6755595,
  "lon": 25.5800582,
  "tags": {
    "bench": "no",
    "bin": "yes",
    "bus": "yes",
    "departures_board": "timetable",
    "highway": "bus_stop",
    "name": "Unitate Militară",
    "network": "RAT Brașov",
    "network:wikidata": "Q7258031",
    "network:wikipedia": "ro:RATBV",
    "operator": "RAT Brașov",
    "public_transport": "platform",
    "shelter": "no",
    "wheelchair": "limited"
  }
},
{
  "type": "node",
  "id": 3708897315,
  "lat": 45.6191589,
  "lon": 25.5435529,
  "tags": {
    "bus": "yes",
    "departures_board": "timetable",
    "fare_zone": "PoianaBrasov",
    "highway": "bus_stop",
    "name": "Braniște",
    "network": "RAT Brașov",
    "network:wikidata": "Q7258031",
    "network:wikipedia": "ro:RATBV",
    "operator": "RAT Brașov",
    "public_transport": "platform",
    "wheelchair": "limited"
  }
},
{
  "type": "node",
  "id": 3708897316,
  "lat": 45.6428088,
  "lon": 25.5657055,
  "tags": {
    "bus": "yes",
    "departures_board": "timetable",
    "fare_zone": "PoianaBrasov",
    "highway": "bus_stop",
    "name": "Piscului",
    "network": "RAT Brașov",
    "network:wikidata": "Q7258031",
    "network:wikipedia": "ro:RATBV",
    "operator": "RAT Brașov",
    "public_transport": "platform",
    "wheelchair": "limited"
  }
},
{
  "type": "node",
  "id": 3708897317,
  "lat": 45.6447915,
  "lon": 25.5802674,
  "tags": {
    "bus": "yes",
    "departures_board": "timetable",
    "highway": "bus_stop",
    "name": "Bellevue Residence",
    "network": "RAT Brașov",
    "network:wikidata": "Q7258031",
    "network:wikipedia": "ro:RATBV",
    "operator": "RAT Brașov",
    "public_transport": "platform",
    "wheelchair": "limited"
  }
},
{
  "type": "node",
  "id": 3708897319,
  "lat": 45.6081452,
  "lon": 25.5542123,
  "tags": {
    "bench": "yes",
    "bin": "yes",
    "bus": "yes",
    "departures_board": "timetable",
    "fare_zone": "PoianaBrasov",
    "highway": "bus_stop",
    "name": "Poiana Mică",
    "network": "RAT Brașov",
    "network:wikidata": "Q7258031",
    "network:wikipedia": "ro:RATBV",
    "operator": "RAT Brașov",
    "public_transport": "platform",
    "shelter": "no",
    "wheelchair": "limited"
  }
},